[
  {
    "stop_id": "PB241",
    "stop_code": "",
    "stop_name": "PB241-Parada / Mall Plaza Norte - Los Libertadores",
    "stop_lat": -33.3640607810884,
    "stop_lon": -70.6813493519124,
    "stop_url": "",
    "wheelchair_boarding": 0
  },
  {
    "stop_id": "PB184",
    "stop_code": "",
    "stop_name": "PB184-Los Libertadores / Esq. Av. A. Vespucio",
    "stop_lat": -33.3668314015184,
    "stop_lon": -70.68097565189,
    "stop_url": "",
    "wheelchair_boarding": 0
  },
  {
    "stop_id": "PB185",
    "stop_code": "",
    "stop_name": "PB185-Parada / Pasarela Albany",
    "stop_lat": -33.3660777516853,
    "stop_lon": -70.6857970004004,
    "stop_url": "",
    "wheelchair_boarding": 0
  },
  {
    "stop_id": "PB242",
    "stop_code": "",
    "stop_name": "PB242-Parada 6 / (M) Los Libertadores",
    "stop_lat": -33.366339735398,
    "stop_lon": -70.6896183397335,
    "stop_url": "",
    "wheelchair_boarding": 0
  },
  {
    "stop_id": "PB186",
    "stop_code": "",
    "stop_name": "PB186-Av. Independencia / Esq. H. De Iquique",
    "stop_lat": -33.3691429425543,
    "stop_lon": -70.6886829663555,
    "stop_url": "",
    "wheelchair_boarding": 0
  },
  {
    "stop_id": "PB187",
    "stop_code": "",
    "stop_name": "PB187-Av. Independencia / Esq. H. La Concepción",
    "stop_lat": -33.3715637184741,
    "stop_lon": -70.6877189999396,
    "stop_url": "",
    "wheelchair_boarding": 0
  },
  {
    "stop_id": "PB188",
    "stop_code": "",
    "stop_name": "PB188-Parada 1 / (M) Cardenal Caro",
    "stop_lat": -33.3733848493152,
    "stop_lon": -70.6866856839114,
    "stop_url": "",
    "wheelchair_boarding": 0
  },
  {
    "stop_id": "PB251",
    "stop_code": "",
    "stop_name": "PB251-Av. Independencia / Esq. Trigal",
    "stop_lat": -33.3767543687322,
    "stop_lon": -70.6845528917126,
    "stop_url": "",
    "wheelchair_boarding": 0
  },
  {
    "stop_id": "PB190",
    "stop_code": "",
    "stop_name": "PB190-Av. Independencia / Esq. El Cortijo",
    "stop_lat": -33.378221338379,
    "stop_lon": -70.6839109982666,
    "stop_url": "",
    "wheelchair_boarding": 0
  },
  {
    "stop_id": "PB191",
    "stop_code": "",
    "stop_name": "PB191-Av. Independencia / Esq. Quilicura",
    "stop_lat": -33.3810873058301,
    "stop_lon": -70.6829978353462,
    "stop_url": "",
    "wheelchair_boarding": 0
  },
  {
    "stop_id": "PB1707",
    "stop_code": "",
    "stop_name": "PB1707-Av. Independencia / Esq. El Pino",
    "stop_lat": -33.3829108397857,
    "stop_lon": -70.6819075609822,
    "stop_url": "",
    "wheelchair_boarding": 0
  },
  {
    "stop_id": "PB193",
    "stop_code": "",
    "stop_name": "PB193-Parada 1 / (M) Vivaceta",
    "stop_lat": -33.3856989105895,
    "stop_lon": -70.6796928124103,
    "stop_url": "",
    "wheelchair_boarding": 0
  },
  {
    "stop_id": "PB194",
    "stop_code": "",
    "stop_name": "PB194-Av. Independencia / Esq. Módulo Lunar",
    "stop_lat": -33.3878078782433,
    "stop_lon": -70.6783420004488,
    "stop_url": "",
    "wheelchair_boarding": 0
  },
  {
    "stop_id": "PB195",
    "stop_code": "",
    "stop_name": "PB195-Av. Independencia / Esq. El Olivo",
    "stop_lat": -33.3907379294037,
    "stop_lon": -70.6753029996458,
    "stop_url": "",
    "wheelchair_boarding": 0
  },
  {
    "stop_id": "PB196",
    "stop_code": "",
    "stop_name": "PB196-Av. Independencia / Esq. Teniente Ponce",
    "stop_lat": -33.3932709572678,
    "stop_lon": -70.673612000302,
    "stop_url": "",
    "wheelchair_boarding": 0
  },
  {
    "stop_id": "PB259",
    "stop_code": "",
    "stop_name": "PB259-Av. Independencia / Esq. B. Mandujano",
    "stop_lat": -33.3961389920302,
    "stop_lon": -70.6715719995143,
    "stop_url": "",
    "wheelchair_boarding": 0
  },
  {
    "stop_id": "PB198",
    "stop_code": "",
    "stop_name": "PB198-Parada 1 / (M) Conchalí",
    "stop_lat": -33.3976901519879,
    "stop_lon": -70.6699543656155,
    "stop_url": "",
    "wheelchair_boarding": 0
  },
  {
    "stop_id": "PB1967",
    "stop_code": "",
    "stop_name": "PB1967-Av. Independencia / Esq. Pablo Urzúa",
    "stop_lat": -33.401021562569,
    "stop_lon": -70.6659517980744,
    "stop_url": "",
    "wheelchair_boarding": 0
  },
  {
    "stop_id": "PB1964",
    "stop_code": "",
    "stop_name": "PB1964-Parada 1 / Einstein - Independencia",
    "stop_lat": -33.404129709827,
    "stop_lon": -70.6630924980754,
    "stop_url": "",
    "wheelchair_boarding": 0
  },
  {
    "stop_id": "PB1960",
    "stop_code": "",
    "stop_name": "PB1960-Parada 6 / (M) Pza. Chacabuco",
    "stop_lat": -33.4074456487041,
    "stop_lon": -70.6607268980761,
    "stop_url": "",
    "wheelchair_boarding": 0
  },
  {
    "stop_id": "PB1958",
    "stop_code": "",
    "stop_name": "PB1958-Av. Independencia / Esq. Los Nidos",
    "stop_lat": -33.4102115656897,
    "stop_lon": -70.6596860980763,
    "stop_url": "",
    "wheelchair_boarding": 0
  },
  {
    "stop_id": "PB1957",
    "stop_code": "",
    "stop_name": "PB1957-Av. Independencia / Esq. Central",
    "stop_lat": -33.4128456851102,
    "stop_lon": -70.6584953980766,
    "stop_url": "",
    "wheelchair_boarding": 0
  },
  {
    "stop_id": "PB1955",
    "stop_code": "",
    "stop_name": "PB1955-Av. Independencia / Esq. San Luis",
    "stop_lat": -33.4158659093028,
    "stop_lon": -70.6570093980769,
    "stop_url": "",
    "wheelchair_boarding": 0
  },
  {
    "stop_id": "PB1953",
    "stop_code": "",
    "stop_name": "PB1953-Parada 1 / (M) Hospitales",
    "stop_lat": -33.4179565202081,
    "stop_lon": -70.656335998077,
    "stop_url": "",
    "wheelchair_boarding": 0
  },
  {
    "stop_id": "PB1951",
    "stop_code": "",
    "stop_name": "PB1951-Parada 3 / Hospital Clínico U. De Chile",
    "stop_lat": -33.4209206316209,
    "stop_lon": -70.6556279980771,
    "stop_url": "",
    "wheelchair_boarding": 0
  },
  {
    "stop_id": "PB1950",
    "stop_code": "",
    "stop_name": "PB1950-Av. Independencia / Esq. Dávila Baeza",
    "stop_lat": -33.4257940491756,
    "stop_lon": -70.6545362980771,
    "stop_url": "",
    "wheelchair_boarding": 0
  },
  {
    "stop_id": "PB1948",
    "stop_code": "",
    "stop_name": "PB1948-Av. Independencia / Esq. General Prieto",
    "stop_lat": -33.4296331656137,
    "stop_lon": -70.6535143980772,
    "stop_url": "",
    "wheelchair_boarding": 0
  },
  {
    "stop_id": "PA48",
    "stop_code": "",
    "stop_name": "PA48-Parada 1 / Estación Mapocho",
    "stop_lat": -33.4325869946648,
    "stop_lon": -70.6533393096494,
    "stop_url": "",
    "wheelchair_boarding": 0
  },
  {
    "stop_id": "PA49",
    "stop_code": "",
    "stop_name": "PA49-Parada / Hospital Traumatológico",
    "stop_lat": -33.4343666642582,
    "stop_lon": -70.6587930624487,
    "stop_url": "",
    "wheelchair_boarding": 0
  },
  {
    "stop_id": "PA50",
    "stop_code": "",
    "stop_name": "PA50-Parada 1 / Teatro Teletón",
    "stop_lat": -33.4356627684991,
    "stop_lon": -70.6586044333759,
    "stop_url": "",
    "wheelchair_boarding": 0
  },
  {
    "stop_id": "PA51",
    "stop_code": "",
    "stop_name": "PA51-Parada 3 / (M) Santa Ana",
    "stop_lat": -33.4385805651238,
    "stop_lon": -70.6582450806926,
    "stop_url": "",
    "wheelchair_boarding": 0
  },
  {
    "stop_id": "PA52",
    "stop_code": "",
    "stop_name": "PA52-San Martín / Esq. Moneda",
    "stop_lat": -33.4419741156907,
    "stop_lon": -70.6578083810924,
    "stop_url": "",
    "wheelchair_boarding": 0
  },
  {
    "stop_id": "PA53",
    "stop_code": "",
    "stop_name": "PA53-Parada 1 / (M) La Moneda",
    "stop_lat": -33.4447230157656,
    "stop_lon": -70.6574680589002,
    "stop_url": "",
    "wheelchair_boarding": 0
  },
  {
    "stop_id": "PA30",
    "stop_code": "",
    "stop_name": "PA30-San Ignacio / Esq. Padre M. De Olivares",
    "stop_lat": -33.4488090783555,
    "stop_lon": -70.6568486688148,
    "stop_url": "",
    "wheelchair_boarding": 0
  },
  {
    "stop_id": "PA31",
    "stop_code": "",
    "stop_name": "PA31-Parada / Palacio Cousiño",
    "stop_lat": -33.4514821441449,
    "stop_lon": -70.6563239410074,
    "stop_url": "",
    "wheelchair_boarding": 0
  },
  {
    "stop_id": "PA54",
    "stop_code": "",
    "stop_name": "PA54-Santa Isabel / Esq. Lord Cochrane",
    "stop_lat": -33.4529809708471,
    "stop_lon": -70.6546527345213,
    "stop_url": "",
    "wheelchair_boarding": 0
  },
  {
    "stop_id": "PA55",
    "stop_code": "",
    "stop_name": "PA55-Nataniel Cox / Esq. Av. 10 De Julio",
    "stop_lat": -33.4541461433152,
    "stop_lon": -70.6526326874698,
    "stop_url": "",
    "wheelchair_boarding": 0
  },
  {
    "stop_id": "PA627",
    "stop_code": "",
    "stop_name": "PA627-Nataniel Cox / Esq. Copiapó",
    "stop_lat": -33.4555343049748,
    "stop_lon": -70.6523860003655,
    "stop_url": "",
    "wheelchair_boarding": 0
  },
  {
    "stop_id": "PA56",
    "stop_code": "",
    "stop_name": "PA56-Nataniel Cox / Esq. Aconcagua",
    "stop_lat": -33.4577468863796,
    "stop_lon": -70.6520612768699,
    "stop_url": "",
    "wheelchair_boarding": 0
  },
  {
    "stop_id": "PA57",
    "stop_code": "",
    "stop_name": "PA57-Nataniel Cox / Esq. Av. Manuel A. Matta",
    "stop_lat": -33.4595627077999,
    "stop_lon": -70.6517989977282,
    "stop_url": "",
    "wheelchair_boarding": 0
  },
  {
    "stop_id": "PA58",
    "stop_code": "",
    "stop_name": "PA58-Parada / Colegio Santa Cruz",
    "stop_lat": -33.4637214973659,
    "stop_lon": -70.6511339669759,
    "stop_url": "",
    "wheelchair_boarding": 0
  },
  {
    "stop_id": "PA694",
    "stop_code": "",
    "stop_name": "PA694-Nataniel Cox / Esq. Pedro Lagos",
    "stop_lat": -33.4658913306338,
    "stop_lon": -70.6507990000548,
    "stop_url": "",
    "wheelchair_boarding": 0
  },
  {
    "stop_id": "PA60",
    "stop_code": "",
    "stop_name": "PA60-Nataniel Cox / Esq. Ñuble",
    "stop_lat": -33.4697029870516,
    "stop_lon": -70.6502026857771,
    "stop_url": "",
    "wheelchair_boarding": 0
  },
  {
    "stop_id": "PA61",
    "stop_code": "",
    "stop_name": "PA61-Nataniel Cox / Esq. Franklin",
    "stop_lat": -33.4731533518852,
    "stop_lon": -70.6496618347882,
    "stop_url": "",
    "wheelchair_boarding": 0
  },
  {
    "stop_id": "PA62",
    "stop_code": "",
    "stop_name": "PA62-Parada 1 / (M) Franklin",
    "stop_lat": -33.4752841903027,
    "stop_lon": -70.6484152996958,
    "stop_url": "",
    "wheelchair_boarding": 0
  },
  {
    "stop_id": "PH110",
    "stop_code": "",
    "stop_name": "PH110-Parada 1 / Paradero 3 Gran Avenida",
    "stop_lat": -33.4793262248409,
    "stop_lon": -70.648348954018,
    "stop_url": "",
    "wheelchair_boarding": 0
  },
  {
    "stop_id": "PH111",
    "stop_code": "",
    "stop_name": "PH111-Parada 1 / Hospital Barros Luco",
    "stop_lat": -33.483505350006,
    "stop_lon": -70.6495300002944,
    "stop_url": "",
    "wheelchair_boarding": 0
  },
  {
    "stop_id": "PH112",
    "stop_code": "",
    "stop_name": "PH112-Parada 3 / Muni.San Miguel",
    "stop_lat": -33.4854633414079,
    "stop_lon": -70.6500810002857,
    "stop_url": "",
    "wheelchair_boarding": 0
  },
  {
    "stop_id": "PH113",
    "stop_code": "",
    "stop_name": "PH113-Parada 1 / Paradero 8 Gran Avenida",
    "stop_lat": -33.4894403229374,
    "stop_lon": -70.651169000211,
    "stop_url": "",
    "wheelchair_boarding": 0
  },
  {
    "stop_id": "PH114",
    "stop_code": "",
    "stop_name": "PH114-Parada / Paradero 9 Gran Avenida",
    "stop_lat": -33.4917723132102,
    "stop_lon": -70.6517639996115,
    "stop_url": "",
    "wheelchair_boarding": 0
  },
  {
    "stop_id": "PH115",
    "stop_code": "",
    "stop_name": "PH115-Parada / Paradero 9 1/2 Gran Avenida",
    "stop_lat": -33.4948842998019,
    "stop_lon": -70.6525950000488,
    "stop_url": "",
    "wheelchair_boarding": 0
  },
  {
    "stop_id": "PH792",
    "stop_code": "",
    "stop_name": "PH792-Parada 3 / Paradero 10 Gran Avenida",
    "stop_lat": -33.4979012863605,
    "stop_lon": -70.6534430004759,
    "stop_url": "",
    "wheelchair_boarding": 0
  },
  {
    "stop_id": "PH118",
    "stop_code": "",
    "stop_name": "PH118-Parada / Colegio Chile",
    "stop_lat": -33.5013932756785,
    "stop_lon": -70.6544513353118,
    "stop_url": "",
    "wheelchair_boarding": 0
  },
  {
    "stop_id": "PH119",
    "stop_code": "",
    "stop_name": "PH119-Parada 3 / (M) Departamental",
    "stop_lat": -33.5039782568293,
    "stop_lon": -70.6552049996668,
    "stop_url": "",
    "wheelchair_boarding": 0
  },
  {
    "stop_id": "PH120",
    "stop_code": "",
    "stop_name": "PH120-Parada / Paradero 13 Gran Avenida",
    "stop_lat": -33.506017247448,
    "stop_lon": -70.6557720005178,
    "stop_url": "",
    "wheelchair_boarding": 0
  },
  {
    "stop_id": "PH121",
    "stop_code": "",
    "stop_name": "PH121-Parada / Paradero 14 Gran Avenida",
    "stop_lat": -33.5083692367948,
    "stop_lon": -70.6564389998103,
    "stop_url": "",
    "wheelchair_boarding": 0
  },
  {
    "stop_id": "PH122",
    "stop_code": "",
    "stop_name": "PH122-Parada / Paradero 15 Gran Avenida",
    "stop_lat": -33.5124068196941,
    "stop_lon": -70.6575886076466,
    "stop_url": "",
    "wheelchair_boarding": 0
  },
  {
    "stop_id": "PH123",
    "stop_code": "",
    "stop_name": "PH123-Parada 1 / Paradero 17 Gran Avenida",
    "stop_lat": -33.5143320149176,
    "stop_lon": -70.6580998935816,
    "stop_url": "",
    "wheelchair_boarding": 0
  },
  {
    "stop_id": "PG1",
    "stop_code": "",
    "stop_name": "PG1-Parada / (M) Lo Ovalle",
    "stop_lat": -33.518425398773,
    "stop_lon": -70.6592730647045,
    "stop_url": "",
    "wheelchair_boarding": 0
  },
  {
    "stop_id": "PG2",
    "stop_code": "",
    "stop_name": "PG2-Parada 1 / Paradero 19 Gran Avenida",
    "stop_lat": -33.5203395095231,
    "stop_lon": -70.6598166251496,
    "stop_url": "",
    "wheelchair_boarding": 0
  },
  {
    "stop_id": "PG3",
    "stop_code": "",
    "stop_name": "PG3-Parada 1 / Paradero 2 Gran Avenida",
    "stop_lat": -33.5239560825402,
    "stop_lon": -70.6608309604853,
    "stop_url": "",
    "wheelchair_boarding": 0
  },
  {
    "stop_id": "PG4",
    "stop_code": "",
    "stop_name": "PG4-Parada 1 / (M) El Parrón",
    "stop_lat": -33.526217152479,
    "stop_lon": -70.6614939998493,
    "stop_url": "",
    "wheelchair_boarding": 0
  },
  {
    "stop_id": "PG5",
    "stop_code": "",
    "stop_name": "PG5-Parada 1 / Paradero 22 Gran Avenida",
    "stop_lat": -33.5287673425173,
    "stop_lon": -70.6621576035493,
    "stop_url": "",
    "wheelchair_boarding": 0
  },
  {
    "stop_id": "PG6",
    "stop_code": "",
    "stop_name": "PG6-Parada / Iglesia Don Bosco",
    "stop_lat": -33.5312652406287,
    "stop_lon": -70.6628258120521,
    "stop_url": "",
    "wheelchair_boarding": 0
  },
  {
    "stop_id": "PG7",
    "stop_code": "",
    "stop_name": "PG7-Parada / Muni.La Cisterna",
    "stop_lat": -33.5340461176512,
    "stop_lon": -70.6635799996099,
    "stop_url": "",
    "wheelchair_boarding": 0
  },
  {
    "stop_id": "PG8",
    "stop_code": "",
    "stop_name": "PG8-Parada 9 / (M) La Cisterna",
    "stop_lat": -33.5378561013313,
    "stop_lon": -70.6645930002273,
    "stop_url": "",
    "wheelchair_boarding": 0
  },
  {
    "stop_id": "PG9",
    "stop_code": "",
    "stop_name": "PG9-Parada 1 / Paradero 27 Gran Avenida",
    "stop_lat": -33.542641076519,
    "stop_lon": -70.666048999907,
    "stop_url": "",
    "wheelchair_boarding": 0
  },
  {
    "stop_id": "PG10",
    "stop_code": "",
    "stop_name": "PG10-Parada 1 / Paradero 28 Gran Avenida",
    "stop_lat": -33.5461390294524,
    "stop_lon": -70.6688420004519,
    "stop_url": "",
    "wheelchair_boarding": 0
  },
  {
    "stop_id": "PG11",
    "stop_code": "",
    "stop_name": "PG11-Parada / Paradero 29 Gran Avenida",
    "stop_lat": -33.5488619695239,
    "stop_lon": -70.6710056159006,
    "stop_url": "",
    "wheelchair_boarding": 0
  },
  {
    "stop_id": "PG12",
    "stop_code": "",
    "stop_name": "PG12-Parada 1 / Paradero 3 - Gran Avenida",
    "stop_lat": -33.5507879682108,
    "stop_lon": -70.6725130002845,
    "stop_url": "",
    "wheelchair_boarding": 0
  },
  {
    "stop_id": "PG13",
    "stop_code": "",
    "stop_name": "PG13-Parada 1 / Paradero 31 Gran Avenida",
    "stop_lat": -33.5538920011205,
    "stop_lon": -70.6749622112213,
    "stop_url": "",
    "wheelchair_boarding": 0
  },
  {
    "stop_id": "PG14",
    "stop_code": "",
    "stop_name": "PG14-Parada / Paradero 32 Gran Avenida",
    "stop_lat": -33.5560368987031,
    "stop_lon": -70.6766289995742,
    "stop_url": "",
    "wheelchair_boarding": 0
  },
  {
    "stop_id": "PG15",
    "stop_code": "",
    "stop_name": "PG15-Gran Avenida / Esq. Lo Espina",
    "stop_lat": -33.5582452866835,
    "stop_lon": -70.6783597467787,
    "stop_url": "",
    "wheelchair_boarding": 0
  },
  {
    "stop_id": "PG16",
    "stop_code": "",
    "stop_name": "PG16-Parada / Paradero 33 Gran Avenida",
    "stop_lat": -33.5594534173714,
    "stop_lon": -70.6793038700913,
    "stop_url": "",
    "wheelchair_boarding": 0
  },
  {
    "stop_id": "PG17",
    "stop_code": "",
    "stop_name": "PG17-Parada / Escuela De Aviación",
    "stop_lat": -33.561596823456,
    "stop_lon": -70.6809899997513,
    "stop_url": "",
    "wheelchair_boarding": 0
  },
  {
    "stop_id": "PG18",
    "stop_code": "",
    "stop_name": "PG18-Parada / Paradero 35 Gran Avenida",
    "stop_lat": -33.5637217945629,
    "stop_lon": -70.6826899995772,
    "stop_url": "",
    "wheelchair_boarding": 0
  },
  {
    "stop_id": "PG19",
    "stop_code": "",
    "stop_name": "PG19-Parada / Paradero 36 Gran Avenida",
    "stop_lat": -33.5660857614543,
    "stop_lon": -70.6846249999229,
    "stop_url": "",
    "wheelchair_boarding": 0
  },
  {
    "stop_id": "PG20",
    "stop_code": "",
    "stop_name": "PG20-Parada 1 / Paradero 36 1/2 Gran Avenida",
    "stop_lat": -33.5681027326924,
    "stop_lon": -70.6862820003468,
    "stop_url": "",
    "wheelchair_boarding": 0
  },
  {
    "stop_id": "PG21",
    "stop_code": "",
    "stop_name": "PG21-Parada / Paradero 37 Gran Avenida",
    "stop_lat": -33.570892696563,
    "stop_lon": -70.688342000309,
    "stop_url": "",
    "wheelchair_boarding": 0
  },
  {
    "stop_id": "PG22",
    "stop_code": "",
    "stop_name": "PG22-Parada / Paradero 38 Gran Avenida",
    "stop_lat": -33.5736754415643,
    "stop_lon": -70.6903673151627,
    "stop_url": "",
    "wheelchair_boarding": 0
  },
  {
    "stop_id": "PG23",
    "stop_code": "",
    "stop_name": "PG23-Parada 1 / Paradero 39 Gran Avenida",
    "stop_lat": -33.5759075467255,
    "stop_lon": -70.6919972392394,
    "stop_url": "",
    "wheelchair_boarding": 0
  },
  {
    "stop_id": "PG24",
    "stop_code": "",
    "stop_name": "PG24-Parada / Paradero 4 Gran Avenida",
    "stop_lat": -33.5785545991094,
    "stop_lon": -70.6939259996805,
    "stop_url": "",
    "wheelchair_boarding": 0
  },
  {
    "stop_id": "PG25",
    "stop_code": "",
    "stop_name": "PG25-Parada 1 / Paradero 41 Gran Avenida",
    "stop_lat": -33.5823775495046,
    "stop_lon": -70.6967600002864,
    "stop_url": "",
    "wheelchair_boarding": 0
  },
  {
    "stop_id": "PG26",
    "stop_code": "",
    "stop_name": "PG26-Parada 2 / Est.Freire",
    "stop_lat": -33.5856884876271,
    "stop_lon": -70.7002759999798,
    "stop_url": "",
    "wheelchair_boarding": 0
  },
  {
    "stop_id": "PG27",
    "stop_code": "",
    "stop_name": "PG27-Av.José M. Balmaceda / Esq. Urmeneta",
    "stop_lat": -33.5851702360821,
    "stop_lon": -70.7038658901225,
    "stop_url": "",
    "wheelchair_boarding": 0
  },
  {
    "stop_id": "PG28",
    "stop_code": "",
    "stop_name": "PG28-Urmeneta / Esq. 12 De Febrero",
    "stop_lat": -33.5864934105817,
    "stop_lon": -70.7046020001717,
    "stop_url": "",
    "wheelchair_boarding": 0
  },
  {
    "stop_id": "PG29",
    "stop_code": "",
    "stop_name": "PG29-Urmeneta / Esq. Av. Colón-Norte",
    "stop_lat": -33.5890815485634,
    "stop_lon": -70.7055687669733,
    "stop_url": "",
    "wheelchair_boarding": 0
  },
  {
    "stop_id": "PG30",
    "stop_code": "",
    "stop_name": "PG30-Urmeneta / Esq. Covadonga",
    "stop_lat": -33.5934443650067,
    "stop_lon": -70.7071529998305,
    "stop_url": "",
    "wheelchair_boarding": 0
  },
  {
    "stop_id": "PG31",
    "stop_code": "",
    "stop_name": "PG31-San José / Esq. Eyzaguirre",
    "stop_lat": -33.5961493681589,
    "stop_lon": -70.7069270004145,
    "stop_url": "",
    "wheelchair_boarding": 0
  },
  {
    "stop_id": "PG32",
    "stop_code": "",
    "stop_name": "PG32-San José / Esq. Bulnes",
    "stop_lat": -33.5967875611164,
    "stop_lon": -70.7026080123529,
    "stop_url": "",
    "wheelchair_boarding": 0
  },
  {
    "stop_id": "PG1204",
    "stop_code": "",
    "stop_name": "PG1204-San José / Esq. San Martín",
    "stop_lat": -33.5985236091953,
    "stop_lon": -70.6954610003044,
    "stop_url": "",
    "wheelchair_boarding": 0
  },
  {
    "stop_id": "PG1580",
    "stop_code": "",
    "stop_name": "PG1580-José Besa / Esq. Antonio Varas",
    "stop_lat": -33.5982176000836,
    "stop_lon": -70.6938409998273,
    "stop_url": "",
    "wheelchair_boarding": 0
  },
  {
    "stop_id": "PG1581",
    "stop_code": "",
    "stop_name": "PG1581-José Besa / Esq. San José",
    "stop_lat": -33.5986945929554,
    "stop_lon": -70.6942569995444,
    "stop_url": "",
    "wheelchair_boarding": 0
  },
  {
    "stop_id": "PG1219",
    "stop_code": "",
    "stop_name": "PG1219-San José / Esq. José Besa",
    "stop_lat": -33.5989785849051,
    "stop_lon": -70.6939694426997,
    "stop_url": "",
    "wheelchair_boarding": 0
  },
  {
    "stop_id": "PG529",
    "stop_code": "",
    "stop_name": "PG529-José Joaquín Pérez / Esq. San José",
    "stop_lat": -33.5968696528366,
    "stop_lon": -70.7011015359566,
    "stop_url": "",
    "wheelchair_boarding": 0
  },
  {
    "stop_id": "PG36",
    "stop_code": "",
    "stop_name": "PG36-Esmeralda / Esq. Bulnes",
    "stop_lat": -33.5982113052773,
    "stop_lon": -70.7026149777583,
    "stop_url": "",
    "wheelchair_boarding": 0
  },
  {
    "stop_id": "PG37",
    "stop_code": "",
    "stop_name": "PG37-Freire / Esq. San José",
    "stop_lat": -33.5967423978542,
    "stop_lon": -70.7052630001615,
    "stop_url": "",
    "wheelchair_boarding": 0
  },
  {
    "stop_id": "PG1599",
    "stop_code": "",
    "stop_name": "PG1599-Parada 2 / Plaza De San Bernardo",
    "stop_lat": -33.5922410335906,
    "stop_lon": -70.7036889141713,
    "stop_url": "",
    "wheelchair_boarding": 0
  },
  {
    "stop_id": "PG40",
    "stop_code": "",
    "stop_name": "PG40-Freire / Esq. 12 De Febrero",
    "stop_lat": -33.5880638447527,
    "stop_lon": -70.7008673102316,
    "stop_url": "",
    "wheelchair_boarding": 0
  },
  {
    "stop_id": "PG41",
    "stop_code": "",
    "stop_name": "PG41-Parada 1 / Est.Freire",
    "stop_lat": -33.5861965050969,
    "stop_lon": -70.6992459996499,
    "stop_url": "",
    "wheelchair_boarding": 0
  },
  {
    "stop_id": "PG43",
    "stop_code": "",
    "stop_name": "PG43-Parada 2 / Paradero 41 Gran Avenida",
    "stop_lat": -33.5821045585531,
    "stop_lon": -70.6962369995067,
    "stop_url": "",
    "wheelchair_boarding": 0
  },
  {
    "stop_id": "PG44",
    "stop_code": "",
    "stop_name": "PG44-Parada / Paradero 4 Gran Avenida",
    "stop_lat": -33.5796757477403,
    "stop_lon": -70.6944169366011,
    "stop_url": "",
    "wheelchair_boarding": 0
  },
  {
    "stop_id": "PG45",
    "stop_code": "",
    "stop_name": "PG45-Parada 2 / Paradero 39 Gran Avenida",
    "stop_lat": -33.5768376269181,
    "stop_lon": -70.6923650001754,
    "stop_url": "",
    "wheelchair_boarding": 0
  },
  {
    "stop_id": "PG46",
    "stop_code": "",
    "stop_name": "PG46-Parada / Paradero 38 Gran Avenida",
    "stop_lat": -33.5744666574152,
    "stop_lon": -70.6906299996713,
    "stop_url": "",
    "wheelchair_boarding": 0
  },
  {
    "stop_id": "PG47",
    "stop_code": "",
    "stop_name": "PG47-Parada / Paradero 37 Gran Avenida",
    "stop_lat": -33.5717905076772,
    "stop_lon": -70.6886514828575,
    "stop_url": "",
    "wheelchair_boarding": 0
  },
  {
    "stop_id": "PG48",
    "stop_code": "",
    "stop_name": "PG48-Parada 2 / Paradero 36 1/2 Gran Avenida",
    "stop_lat": -33.5686777712449,
    "stop_lon": -70.6864190175424,
    "stop_url": "",
    "wheelchair_boarding": 0
  },
  {
    "stop_id": "PG49",
    "stop_code": "",
    "stop_name": "PG49-Parada / Paradero 36 Gran Avenida",
    "stop_lat": -33.5664137619082,
    "stop_lon": -70.684569000269,
    "stop_url": "",
    "wheelchair_boarding": 0
  },
  {
    "stop_id": "PG50",
    "stop_code": "",
    "stop_name": "PG50-Parada / Paradero 35 Gran Avenida",
    "stop_lat": -33.5642217927873,
    "stop_lon": -70.6827870002611,
    "stop_url": "",
    "wheelchair_boarding": 0
  },
  {
    "stop_id": "PG51",
    "stop_code": "",
    "stop_name": "PG51-Parada / Escuela De Aviación",
    "stop_lat": -33.5616208672366,
    "stop_lon": -70.6807278646637,
    "stop_url": "",
    "wheelchair_boarding": 0
  },
  {
    "stop_id": "PG52",
    "stop_code": "",
    "stop_name": "PG52-Parada / Paradero 33 Gran Avenida",
    "stop_lat": -33.5592208607008,
    "stop_lon": -70.6788470000871,
    "stop_url": "",
    "wheelchair_boarding": 0
  },
  {
    "stop_id": "PG53",
    "stop_code": "",
    "stop_name": "PG53-Gran Avenida / Esq. Los Treboles",
    "stop_lat": -33.5576028818248,
    "stop_lon": -70.6775740002592,
    "stop_url": "",
    "wheelchair_boarding": 0
  },
  {
    "stop_id": "PG54",
    "stop_code": "",
    "stop_name": "PG54-Parada / Paradero 32 Gran Avenida",
    "stop_lat": -33.555715907843,
    "stop_lon": -70.6760819998502,
    "stop_url": "",
    "wheelchair_boarding": 0
  },
  {
    "stop_id": "PG55",
    "stop_code": "",
    "stop_name": "PG55-Parada 2 / Paradero 31 Gran Avenida",
    "stop_lat": -33.5537629334706,
    "stop_lon": -70.6745429998351,
    "stop_url": "",
    "wheelchair_boarding": 0
  },
  {
    "stop_id": "PG56",
    "stop_code": "",
    "stop_name": "PG56-Parada 2 / Paradero 30 Gran Avenida",
    "stop_lat": -33.5513380759362,
    "stop_lon": -70.6726239110333,
    "stop_url": "",
    "wheelchair_boarding": 0
  },
  {
    "stop_id": "PG57",
    "stop_code": "",
    "stop_name": "PG57-Parada / Paradero 29 Gran Avenida",
    "stop_lat": -33.5492179939966,
    "stop_lon": -70.670973999754,
    "stop_url": "",
    "wheelchair_boarding": 0
  },
  {
    "stop_id": "PG58",
    "stop_code": "",
    "stop_name": "PG58-Parada 2 / Paradero 28 Gran Avenida",
    "stop_lat": -33.545890038726,
    "stop_lon": -70.6683310005704,
    "stop_url": "",
    "wheelchair_boarding": 0
  },
  {
    "stop_id": "PG59",
    "stop_code": "",
    "stop_name": "PG59-Parada 2 / Paradero 27 Gran Avenida",
    "stop_lat": -33.5430640756793,
    "stop_lon": -70.6660860003385,
    "stop_url": "",
    "wheelchair_boarding": 0
  },
  {
    "stop_id": "PG61",
    "stop_code": "",
    "stop_name": "PG61-Parada 8 / (M) La Cisterna",
    "stop_lat": -33.537927103452,
    "stop_lon": -70.6644540000028,
    "stop_url": "",
    "wheelchair_boarding": 0
  },
  {
    "stop_id": "PG62",
    "stop_code": "",
    "stop_name": "PG62-Parada / Paradero 23 Gran Avenida",
    "stop_lat": -33.533450046651,
    "stop_lon": -70.6631742020136,
    "stop_url": "",
    "wheelchair_boarding": 0
  },
  {
    "stop_id": "PG63",
    "stop_code": "",
    "stop_name": "PG63-Parada / Iglesia Don Bosco",
    "stop_lat": -33.53218513074,
    "stop_lon": -70.6628260000898,
    "stop_url": "",
    "wheelchair_boarding": 0
  },
  {
    "stop_id": "PG64",
    "stop_code": "",
    "stop_name": "PG64-Parada 2 / Paradero 22 Gran Avenida",
    "stop_lat": -33.5295342617976,
    "stop_lon": -70.6620821490497,
    "stop_url": "",
    "wheelchair_boarding": 0
  },
  {
    "stop_id": "PG65",
    "stop_code": "",
    "stop_name": "PG65-Parada 2 / (M) El Parrón",
    "stop_lat": -33.5268671548216,
    "stop_lon": -70.6613820000668,
    "stop_url": "",
    "wheelchair_boarding": 0
  },
  {
    "stop_id": "PG66",
    "stop_code": "",
    "stop_name": "PG66-Parada 2 / Paradero 2 Gran Avenida",
    "stop_lat": -33.5243461661938,
    "stop_lon": -70.6606909996074,
    "stop_url": "",
    "wheelchair_boarding": 0
  },
  {
    "stop_id": "PG67",
    "stop_code": "",
    "stop_name": "PG67-Parada 2 / Paradero 19 Gran Avenida",
    "stop_lat": -33.5208198271447,
    "stop_lon": -70.6596611779405,
    "stop_url": "",
    "wheelchair_boarding": 0
  },
  {
    "stop_id": "PG68",
    "stop_code": "",
    "stop_name": "PG68-Parada / (M) Lo Ovalle",
    "stop_lat": -33.5188372324485,
    "stop_lon": -70.6591068351303,
    "stop_url": "",
    "wheelchair_boarding": 0
  },
  {
    "stop_id": "PG69",
    "stop_code": "",
    "stop_name": "PG69-Parada 2 / Paradero 17 Gran Avenida",
    "stop_lat": -33.5150047445695,
    "stop_lon": -70.6580007632293,
    "stop_url": "",
    "wheelchair_boarding": 0
  },
  {
    "stop_id": "PH124",
    "stop_code": "",
    "stop_name": "PH124-Parada / Paradero 15 Gran Avenida",
    "stop_lat": -33.5115748448949,
    "stop_lon": -70.6570337044413,
    "stop_url": "",
    "wheelchair_boarding": 0
  },
  {
    "stop_id": "PH125",
    "stop_code": "",
    "stop_name": "PH125-Parada / Paradero 14 Gran Avenida",
    "stop_lat": -33.5082622416191,
    "stop_lon": -70.6561249999196,
    "stop_url": "",
    "wheelchair_boarding": 0
  },
  {
    "stop_id": "PH126",
    "stop_code": "",
    "stop_name": "PH126-Parada / Paradero 13 Gran Avenida",
    "stop_lat": -33.5054597777744,
    "stop_lon": -70.6553399340919,
    "stop_url": "",
    "wheelchair_boarding": 0
  },
  {
    "stop_id": "PH127",
    "stop_code": "",
    "stop_name": "PH127-Parada 2 / (M) Departamental",
    "stop_lat": -33.5038902618113,
    "stop_lon": -70.6549010004942,
    "stop_url": "",
    "wheelchair_boarding": 0
  },
  {
    "stop_id": "PH128",
    "stop_code": "",
    "stop_name": "PH128-Parada / Colegio Chile",
    "stop_lat": -33.5011440523024,
    "stop_lon": -70.6540774836387,
    "stop_url": "",
    "wheelchair_boarding": 0
  },
  {
    "stop_id": "PH129",
    "stop_code": "",
    "stop_name": "PH129-Parada 2 / Paradero 11 Gran Avenida",
    "stop_lat": -33.4984972874004,
    "stop_lon": -70.6533369996958,
    "stop_url": "",
    "wheelchair_boarding": 0
  },
  {
    "stop_id": "PH130",
    "stop_code": "",
    "stop_name": "PH130-Parada / Paradero 9 1/2 Gran Avenida",
    "stop_lat": -33.4953013024373,
    "stop_lon": -70.6524330005108,
    "stop_url": "",
    "wheelchair_boarding": 0
  },
  {
    "stop_id": "PH131",
    "stop_code": "",
    "stop_name": "PH131-Parada / Paradero 9 Gran Avenida",
    "stop_lat": -33.4929453129013,
    "stop_lon": -70.6517780005086,
    "stop_url": "",
    "wheelchair_boarding": 0
  },
  {
    "stop_id": "PH132",
    "stop_code": "",
    "stop_name": "PH132-Parada 2 / Paradero 8 Gran Avenida",
    "stop_lat": -33.4902778199263,
    "stop_lon": -70.6511189712221,
    "stop_url": "",
    "wheelchair_boarding": 0
  },
  {
    "stop_id": "PH133",
    "stop_code": "",
    "stop_name": "PH133-Parada 2 / Muni.San Miguel",
    "stop_lat": -33.4870053389255,
    "stop_lon": -70.6502190002935,
    "stop_url": "",
    "wheelchair_boarding": 0
  },
  {
    "stop_id": "PH134",
    "stop_code": "",
    "stop_name": "PH134-Parada 2 / Hospital Barros Luco",
    "stop_lat": -33.4846073497811,
    "stop_lon": -70.6495709998593,
    "stop_url": "",
    "wheelchair_boarding": 0
  },
  {
    "stop_id": "PH135",
    "stop_code": "",
    "stop_name": "PH135-Parada 2 / Paradero 3 Gran Avenida",
    "stop_lat": -33.4799033718469,
    "stop_lon": -70.6481949995028,
    "stop_url": "",
    "wheelchair_boarding": 0
  },
  {
    "stop_id": "PA63",
    "stop_code": "",
    "stop_name": "PA63-Parada 2 / (M) Franklin",
    "stop_lat": -33.4758705286133,
    "stop_lon": -70.6481328398032,
    "stop_url": "",
    "wheelchair_boarding": 0
  },
  {
    "stop_id": "PA64",
    "stop_code": "",
    "stop_name": "PA64-San Diego / Esq. Schiavett",
    "stop_lat": -33.4729687837427,
    "stop_lon": -70.6482928943917,
    "stop_url": "",
    "wheelchair_boarding": 0
  },
  {
    "stop_id": "PA65",
    "stop_code": "",
    "stop_name": "PA65-San Diego / Esq. Ñuble",
    "stop_lat": -33.4699227269104,
    "stop_lon": -70.6484523552025,
    "stop_url": "",
    "wheelchair_boarding": 0
  },
  {
    "stop_id": "PA66",
    "stop_code": "",
    "stop_name": "PA66-Parada / Liceo Barros Borgoño",
    "stop_lat": -33.4663233092322,
    "stop_lon": -70.6486738562612,
    "stop_url": "",
    "wheelchair_boarding": 0
  },
  {
    "stop_id": "PA67",
    "stop_code": "",
    "stop_name": "PA67-San Diego / Esq. Santiago",
    "stop_lat": -33.4629204841516,
    "stop_lon": -70.6488481755512,
    "stop_url": "",
    "wheelchair_boarding": 0
  },
  {
    "stop_id": "PA68",
    "stop_code": "",
    "stop_name": "PA68-San Diego / Esq. Av. Manuel A. Matta",
    "stop_lat": -33.4597830398098,
    "stop_lon": -70.6490446197136,
    "stop_url": "",
    "wheelchair_boarding": 0
  },
  {
    "stop_id": "PA69",
    "stop_code": "",
    "stop_name": "PA69-Parada / Teatro Caupolicán",
    "stop_lat": -33.4558347906664,
    "stop_lon": -70.6496587396763,
    "stop_url": "",
    "wheelchair_boarding": 0
  },
  {
    "stop_id": "PA70",
    "stop_code": "",
    "stop_name": "PA70-San Diego / Esq. Eyzaguirre",
    "stop_lat": -33.4534386849697,
    "stop_lon": -70.6500414347633,
    "stop_url": "",
    "wheelchair_boarding": 0
  },
  {
    "stop_id": "PA72",
    "stop_code": "",
    "stop_name": "PA72-Parada 2 / (M) Pque. Almagro",
    "stop_lat": -33.4506621129466,
    "stop_lon": -70.6504635931877,
    "stop_url": "",
    "wheelchair_boarding": 0
  },
  {
    "stop_id": "PA717",
    "stop_code": "",
    "stop_name": "PA717-Tarapacá / Esq. Zenteno",
    "stop_lat": -33.4475237366748,
    "stop_lon": -70.6520750002697,
    "stop_url": "",
    "wheelchair_boarding": 0
  },
  {
    "stop_id": "PA212",
    "stop_code": "",
    "stop_name": "PA212-Tarapacá / Esq. Lord Cochrane",
    "stop_lat": -33.4477489982157,
    "stop_lon": -70.6540147168618,
    "stop_url": "",
    "wheelchair_boarding": 0
  },
  {
    "stop_id": "PA720",
    "stop_code": "",
    "stop_name": "PA720-Lord Cochrane / Esq. Alameda",
    "stop_lat": -33.4455653578593,
    "stop_lon": -70.6553055536304,
    "stop_url": "",
    "wheelchair_boarding": 0
  },
  {
    "stop_id": "PA218",
    "stop_code": "",
    "stop_name": "PA218-Hermanos Amunátegui / Esq. Moneda",
    "stop_lat": -33.4426437214265,
    "stop_lon": -70.6559750961495,
    "stop_url": "",
    "wheelchair_boarding": 0
  },
  {
    "stop_id": "PA718",
    "stop_code": "",
    "stop_name": "PA718-Hermanos Amunátegui / Esq. Catedral",
    "stop_lat": -33.438227235029,
    "stop_lon": -70.6567580000549,
    "stop_url": "",
    "wheelchair_boarding": 0
  },
  {
    "stop_id": "PA719",
    "stop_code": "",
    "stop_name": "PA719-Hermanos Amunátegui / Esq. San Pablo",
    "stop_lat": -33.4348682276191,
    "stop_lon": -70.6572349999139,
    "stop_url": "",
    "wheelchair_boarding": 0
  },
  {
    "stop_id": "PA87",
    "stop_code": "",
    "stop_name": "PA87-Parada 7 / Estación Mapocho",
    "stop_lat": -33.432999306532,
    "stop_lon": -70.6523909999609,
    "stop_url": "",
    "wheelchair_boarding": 0
  },
  {
    "stop_id": "PB211",
    "stop_code": "",
    "stop_name": "PB211-Parada / Vega Central",
    "stop_lat": -33.4306323191475,
    "stop_lon": -70.6515960005547,
    "stop_url": "",
    "wheelchair_boarding": 0
  },
  {
    "stop_id": "PB212",
    "stop_code": "",
    "stop_name": "PB212-Parada / Terminal Lastra",
    "stop_lat": -33.4288524265465,
    "stop_lon": -70.6514055520921,
    "stop_url": "",
    "wheelchair_boarding": 0
  },
  {
    "stop_id": "PB587",
    "stop_code": "",
    "stop_name": "PB587-Echeverría / Esq. Residencial",
    "stop_lat": -33.4249650341975,
    "stop_lon": -70.6518838660361,
    "stop_url": "",
    "wheelchair_boarding": 0
  },
  {
    "stop_id": "PB214",
    "stop_code": "",
    "stop_name": "PB214-Echeverría / Esq. Av. Independencia",
    "stop_lat": -33.4251054534301,
    "stop_lon": -70.6542771980773,
    "stop_url": "",
    "wheelchair_boarding": 0
  },
  {
    "stop_id": "PB1952",
    "stop_code": "",
    "stop_name": "PB1952-Parada 5 / Hospital Clínico U. De Chile",
    "stop_lat": -33.4202154287656,
    "stop_lon": -70.6558050980771,
    "stop_url": "",
    "wheelchair_boarding": 0
  },
  {
    "stop_id": "PB1954",
    "stop_code": "",
    "stop_name": "PB1954-Parada 6 / (M) Hospitales",
    "stop_lat": -33.4174617179091,
    "stop_lon": -70.656478198077,
    "stop_url": "",
    "wheelchair_boarding": 0
  },
  {
    "stop_id": "PB1956",
    "stop_code": "",
    "stop_name": "PB1956-Av. Independencia / Esq. Baldomero Lillo",
    "stop_lat": -33.4152794038906,
    "stop_lon": -70.6573418980769,
    "stop_url": "",
    "wheelchair_boarding": 0
  },
  {
    "stop_id": "PB1959",
    "stop_code": "",
    "stop_name": "PB1959-Av. Independencia / Esq. General Saavedra",
    "stop_lat": -33.4101522652488,
    "stop_lon": -70.6597130980763,
    "stop_url": "",
    "wheelchair_boarding": 0
  },
  {
    "stop_id": "PB1963",
    "stop_code": "",
    "stop_name": "PB1963-Parada 5 / (M) Pza. Chacabuco",
    "stop_lat": -33.405876133927,
    "stop_lon": -70.6616281980758,
    "stop_url": "",
    "wheelchair_boarding": 0
  },
  {
    "stop_id": "PB1966",
    "stop_code": "",
    "stop_name": "PB1966-Parada 2 / Einstein - Independencia",
    "stop_lat": -33.4035093998459,
    "stop_lon": -70.6636974980752,
    "stop_url": "",
    "wheelchair_boarding": 0
  },
  {
    "stop_id": "PB1968",
    "stop_code": "",
    "stop_name": "PB1968-Av. Independencia / Esq. Huidobro",
    "stop_lat": -33.4005781539354,
    "stop_lon": -70.6664721980742,
    "stop_url": "",
    "wheelchair_boarding": 0
  },
  {
    "stop_id": "PB279",
    "stop_code": "",
    "stop_name": "PB279-Parada 8 / (M) Conchalí",
    "stop_lat": -33.3973317073931,
    "stop_lon": -70.6701764689667,
    "stop_url": "",
    "wheelchair_boarding": 0
  },
  {
    "stop_id": "PB280",
    "stop_code": "",
    "stop_name": "PB280-Av. Independencia / Esq. Aviador Acevedo",
    "stop_lat": -33.3959559917887,
    "stop_lon": -70.6715850005154,
    "stop_url": "",
    "wheelchair_boarding": 0
  },
  {
    "stop_id": "PB281",
    "stop_code": "",
    "stop_name": "PB281-Av. Independencia / Esq. Teniente Ponce",
    "stop_lat": -33.3935089624545,
    "stop_lon": -70.6733350000265,
    "stop_url": "",
    "wheelchair_boarding": 0
  },
  {
    "stop_id": "PB227",
    "stop_code": "",
    "stop_name": "PB227-Av. Independencia / Esq. Elcira Espinoza",
    "stop_lat": -33.3907659328986,
    "stop_lon": -70.6750890002416,
    "stop_url": "",
    "wheelchair_boarding": 0
  },
  {
    "stop_id": "PB283",
    "stop_code": "",
    "stop_name": "PB283-Av. Independencia / Esq. Doctor Asenjo",
    "stop_lat": -33.3882812235837,
    "stop_lon": -70.6771259289872,
    "stop_url": "",
    "wheelchair_boarding": 0
  },
  {
    "stop_id": "PB1708",
    "stop_code": "",
    "stop_name": "PB1708-Parada 2 / (M) Vivaceta",
    "stop_lat": -33.3852662488864,
    "stop_lon": -70.6795957277315,
    "stop_url": "",
    "wheelchair_boarding": 0
  },
  {
    "stop_id": "PB285",
    "stop_code": "",
    "stop_name": "PB285-Av. Independencia / Esq. Juncal",
    "stop_lat": -33.3831228416487,
    "stop_lon": -70.6814637997534,
    "stop_url": "",
    "wheelchair_boarding": 0
  },
  {
    "stop_id": "PB286",
    "stop_code": "",
    "stop_name": "PB286-Av. Independencia / Esq. Uno Sur",
    "stop_lat": -33.3813389357915,
    "stop_lon": -70.6826378481933,
    "stop_url": "",
    "wheelchair_boarding": 0
  },
  {
    "stop_id": "PB232",
    "stop_code": "",
    "stop_name": "PB232-Av. Independencia / Esq. Uno Norte",
    "stop_lat": -33.3791007908442,
    "stop_lon": -70.6834600005296,
    "stop_url": "",
    "wheelchair_boarding": 0
  },
  {
    "stop_id": "PB233",
    "stop_code": "",
    "stop_name": "PB233-Parada 3 / (M) Cardenal Caro",
    "stop_lat": -33.3744897506714,
    "stop_lon": -70.6858319997833,
    "stop_url": "",
    "wheelchair_boarding": 0
  },
  {
    "stop_id": "PB234",
    "stop_code": "",
    "stop_name": "PB234-Av. Independencia / Esq. Barranquilla",
    "stop_lat": -33.371491721513,
    "stop_lon": -70.6875290000008,
    "stop_url": "",
    "wheelchair_boarding": 0
  },
  {
    "stop_id": "PB290",
    "stop_code": "",
    "stop_name": "PB290-Av. Independencia / Esq. Asunción",
    "stop_lat": -33.3691036059509,
    "stop_lon": -70.6884868631728,
    "stop_url": "",
    "wheelchair_boarding": 0
  },
  {
    "stop_id": "PB236",
    "stop_code": "",
    "stop_name": "PB236-Parada 2 / (M) Los Libertadores",
    "stop_lat": -33.3668331733865,
    "stop_lon": -70.6891178936162,
    "stop_url": "",
    "wheelchair_boarding": 0
  },
  {
    "stop_id": "PB237",
    "stop_code": "",
    "stop_name": "PB237-Calle 1 / Esq. Real Audiencia",
    "stop_lat": -33.3638663555271,
    "stop_lon": -70.6888765564213,
    "stop_url": "",
    "wheelchair_boarding": 0
  },
  {
    "stop_id": "PB1491",
    "stop_code": "",
    "stop_name": "PB1491-San Pedro De Atacama / Esq. Lluta",
    "stop_lat": -33.3598045862511,
    "stop_lon": -70.6895617629416,
    "stop_url": "",
    "wheelchair_boarding": 0
  },
  {
    "stop_id": "PB243",
    "stop_code": "",
    "stop_name": "PB243-San Pedro De Atacama / Esq. Isluga",
    "stop_lat": -33.3600297314657,
    "stop_lon": -70.6870109996812,
    "stop_url": "",
    "wheelchair_boarding": 0
  },
  {
    "stop_id": "PB1564",
    "stop_code": "",
    "stop_name": "PB1564-San Pedro De Atacama / Esq. Lasaña",
    "stop_lat": -33.3601797553454,
    "stop_lon": -70.6856050002073,
    "stop_url": "",
    "wheelchair_boarding": 0
  },
  {
    "stop_id": "PB1626",
    "stop_code": "",
    "stop_name": "PB1626-Mejillones / Esq. Pajonales",
    "stop_lat": -33.3592266901268,
    "stop_lon": -70.6845918319727,
    "stop_url": "",
    "wheelchair_boarding": 0
  },
  {
    "stop_id": "PB240",
    "stop_code": "",
    "stop_name": "PB240-Mejillones / Esq. Los Libertadores",
    "stop_lat": -33.3594234514323,
    "stop_lon": -70.6825009544714,
    "stop_url": "",
    "wheelchair_boarding": 0
  },
  {
    "stop_id": "PB1624",
    "stop_code": "",
    "stop_name": "PB1624-Parada 1 / Terminal Los Libertadores",
    "stop_lat": -33.3617018734699,
    "stop_lon": -70.681876002505,
    "stop_url": "",
    "wheelchair_boarding": 0
  },
  {
    "stop_id": "PB299",
    "stop_code": "",
    "stop_name": "PB299-Avenida Recoleta / Esq. Industrial",
    "stop_lat": -33.38077151385,
    "stop_lon": -70.6395740000842,
    "stop_url": "",
    "wheelchair_boarding": 0
  },
  {
    "stop_id": "PB300",
    "stop_code": "",
    "stop_name": "PB300-Avenida Recoleta / Esq. Av. A. Vespucio",
    "stop_lat": -33.3824695030666,
    "stop_lon": -70.6402740002113,
    "stop_url": "",
    "wheelchair_boarding": 0
  },
  {
    "stop_id": "PB1369",
    "stop_code": "",
    "stop_name": "PB1369-Avenida Recoleta / Esq. Oscar Castro",
    "stop_lat": -33.3845654900517,
    "stop_lon": -70.6410790000124,
    "stop_url": "",
    "wheelchair_boarding": 0
  },
  {
    "stop_id": "PB301",
    "stop_code": "",
    "stop_name": "PB301-Avenida Recoleta / Esq. M. Luisa Bombal",
    "stop_lat": -33.3860004798762,
    "stop_lon": -70.6416939996126,
    "stop_url": "",
    "wheelchair_boarding": 0
  },
  {
    "stop_id": "PB302",
    "stop_code": "",
    "stop_name": "PB302-Avenida Recoleta / Esq. Alfredo Rosende",
    "stop_lat": -33.3883391861521,
    "stop_lon": -70.6423639002846,
    "stop_url": "",
    "wheelchair_boarding": 0
  },
  {
    "stop_id": "PB303",
    "stop_code": "",
    "stop_name": "PB303-Parada 3 / (M) Zapadores",
    "stop_lat": -33.3914964665741,
    "stop_lon": -70.6425349997791,
    "stop_url": "",
    "wheelchair_boarding": 0
  },
  {
    "stop_id": "PB304",
    "stop_code": "",
    "stop_name": "PB304-Avenida Recoleta / Esq. Urmeneta",
    "stop_lat": -33.3933031376833,
    "stop_lon": -70.642671753918,
    "stop_url": "",
    "wheelchair_boarding": 0
  },
  {
    "stop_id": "PB305",
    "stop_code": "",
    "stop_name": "PB305-Parada 1 / (M) Dorsal",
    "stop_lat": -33.3961622121349,
    "stop_lon": -70.6428015676184,
    "stop_url": "",
    "wheelchair_boarding": 0
  },
  {
    "stop_id": "PB1728",
    "stop_code": "",
    "stop_name": "PB1728-Avenida Recoleta / Esq. Emiliano Zapata",
    "stop_lat": -33.3990174601528,
    "stop_lon": -70.6428909996574,
    "stop_url": "",
    "wheelchair_boarding": 0
  },
  {
    "stop_id": "PB306",
    "stop_code": "",
    "stop_name": "PB306-Avenida Recoleta / Esq. Muñoz Gamero",
    "stop_lat": -33.4006524589248,
    "stop_lon": -70.6429779995233,
    "stop_url": "",
    "wheelchair_boarding": 0
  },
  {
    "stop_id": "PB307",
    "stop_code": "",
    "stop_name": "PB307-Avenida Recoleta / Esq. Diag. José M. Caro",
    "stop_lat": -33.4031346899022,
    "stop_lon": -70.6431038803523,
    "stop_url": "",
    "wheelchair_boarding": 0
  },
  {
    "stop_id": "PB308",
    "stop_code": "",
    "stop_name": "PB308-Parada 1 / (M) Einstein",
    "stop_lat": -33.4054076858215,
    "stop_lon": -70.643240571169,
    "stop_url": "",
    "wheelchair_boarding": 0
  },
  {
    "stop_id": "PB309",
    "stop_code": "",
    "stop_name": "PB309-Avenida Recoleta / Esq. Avenida México",
    "stop_lat": -33.4079925776683,
    "stop_lon": -70.6433765432087,
    "stop_url": "",
    "wheelchair_boarding": 0
  },
  {
    "stop_id": "PB310",
    "stop_code": "",
    "stop_name": "PB310-Avenida Recoleta / Esq. Saliano",
    "stop_lat": -33.4105403934125,
    "stop_lon": -70.6434677621647,
    "stop_url": "",
    "wheelchair_boarding": 0
  },
  {
    "stop_id": "PB311",
    "stop_code": "",
    "stop_name": "PB311-Parada 3 / (M) Cementerios",
    "stop_lat": -33.4134344176726,
    "stop_lon": -70.6436978120059,
    "stop_url": "",
    "wheelchair_boarding": 0
  },
  {
    "stop_id": "PB312",
    "stop_code": "",
    "stop_name": "PB312-Avenida Recoleta / Esq. El Salto Chico",
    "stop_lat": -33.4171753074405,
    "stop_lon": -70.6438712986616,
    "stop_url": "",
    "wheelchair_boarding": 0
  },
  {
    "stop_id": "PB313",
    "stop_code": "",
    "stop_name": "PB313-Avenida Recoleta / Esq. Urrutia",
    "stop_lat": -33.4188678281573,
    "stop_lon": -70.6440573069104,
    "stop_url": "",
    "wheelchair_boarding": 0
  },
  {
    "stop_id": "PB314",
    "stop_code": "",
    "stop_name": "PB314-Parada 1 / (M) Cerro Blanco",
    "stop_lat": -33.4216294690283,
    "stop_lon": -70.6447933568903,
    "stop_url": "",
    "wheelchair_boarding": 0
  },
  {
    "stop_id": "PB315",
    "stop_code": "",
    "stop_name": "PB315-Avenida Recoleta / Esq. Olivos",
    "stop_lat": -33.4248494137472,
    "stop_lon": -70.6457680001365,
    "stop_url": "",
    "wheelchair_boarding": 0
  },
  {
    "stop_id": "PB316",
    "stop_code": "",
    "stop_name": "PB316-Parada / Clínica Dávila",
    "stop_lat": -33.4270791983654,
    "stop_lon": -70.6464098444858,
    "stop_url": "",
    "wheelchair_boarding": 0
  },
  {
    "stop_id": "PB317",
    "stop_code": "",
    "stop_name": "PB317-Parada / (M) Patronato",
    "stop_lat": -33.429307392022,
    "stop_lon": -70.6470739998121,
    "stop_url": "",
    "wheelchair_boarding": 0
  },
  {
    "stop_id": "PB318",
    "stop_code": "",
    "stop_name": "PB318-Parada 3 / Recoleta Franciscana",
    "stop_lat": -33.4315660859266,
    "stop_lon": -70.6479547820734,
    "stop_url": "",
    "wheelchair_boarding": 0
  },
  {
    "stop_id": "PA88",
    "stop_code": "",
    "stop_name": "PA88-Parada 7 / Mercado Central",
    "stop_lat": -33.4336464521314,
    "stop_lon": -70.6489858509287,
    "stop_url": "",
    "wheelchair_boarding": 0
  },
  {
    "stop_id": "PA195",
    "stop_code": "",
    "stop_name": "PA195-Parada 1 / Monjitas - San Antonio",
    "stop_lat": -33.436676732091,
    "stop_lon": -70.6486600041411,
    "stop_url": "",
    "wheelchair_boarding": 0
  },
  {
    "stop_id": "PA763",
    "stop_code": "",
    "stop_name": "PA763-Parada 2 / Teatro Municipal",
    "stop_lat": -33.4388201517162,
    "stop_lon": -70.6483108388667,
    "stop_url": "",
    "wheelchair_boarding": 0
  },
  {
    "stop_id": "PA91",
    "stop_code": "",
    "stop_name": "PA91-Parada 11 / (M) Santa Lucía",
    "stop_lat": -33.4419587625273,
    "stop_lon": -70.6478825378835,
    "stop_url": "",
    "wheelchair_boarding": 0
  },
  {
    "stop_id": "PA92",
    "stop_code": "",
    "stop_name": "PA92-Parada 1 / Alonso De Ovalle - San Francisco",
    "stop_lat": -33.4452056491427,
    "stop_lon": -70.6471314291699,
    "stop_url": "",
    "wheelchair_boarding": 0
  },
  {
    "stop_id": "PA93",
    "stop_code": "",
    "stop_name": "PA93-Parada 3 / Santa Isabel - San Francisco",
    "stop_lat": -33.4505632489924,
    "stop_lon": -70.6469233848967,
    "stop_url": "",
    "wheelchair_boarding": 0
  },
  {
    "stop_id": "PA94",
    "stop_code": "",
    "stop_name": "PA94-Parada 3 / Diez De Julio - San Francisco",
    "stop_lat": -33.4532604168261,
    "stop_lon": -70.6466036293201,
    "stop_url": "",
    "wheelchair_boarding": 0
  },
  {
    "stop_id": "PA95",
    "stop_code": "",
    "stop_name": "PA95-Parada 9 / (M) Matta",
    "stop_lat": -33.4576564133609,
    "stop_lon": -70.6456529995777,
    "stop_url": "",
    "wheelchair_boarding": 0
  },
  {
    "stop_id": "PA96",
    "stop_code": "",
    "stop_name": "PA96-Parada 3 / Hospital Sn. Borja Arriarán",
    "stop_lat": -33.4606920372462,
    "stop_lon": -70.6450484912998,
    "stop_url": "",
    "wheelchair_boarding": 0
  },
  {
    "stop_id": "PA97",
    "stop_code": "",
    "stop_name": "PA97-Parada 3 / Victoria - San Francisco",
    "stop_lat": -33.4642077843678,
    "stop_lon": -70.6446449510631,
    "stop_url": "",
    "wheelchair_boarding": 0
  },
  {
    "stop_id": "PA98",
    "stop_code": "",
    "stop_name": "PA98-Parada 3 / Ñuble - San Francisco",
    "stop_lat": -33.4690874386947,
    "stop_lon": -70.644058999735,
    "stop_url": "",
    "wheelchair_boarding": 0
  },
  {
    "stop_id": "PA99",
    "stop_code": "",
    "stop_name": "PA99-Parada 3 / Matadero Franklin",
    "stop_lat": -33.4722574900127,
    "stop_lon": -70.6438841816054,
    "stop_url": "",
    "wheelchair_boarding": 0
  },
  {
    "stop_id": "PA819",
    "stop_code": "",
    "stop_name": "PA819-San Francisco / Esq. Placer",
    "stop_lat": -33.4751535119733,
    "stop_lon": -70.6438183579733,
    "stop_url": "",
    "wheelchair_boarding": 0
  },
  {
    "stop_id": "PH138",
    "stop_code": "",
    "stop_name": "PH138-Parada 1 / (M) Bío Bío",
    "stop_lat": -33.4783058258457,
    "stop_lon": -70.641968969208,
    "stop_url": "",
    "wheelchair_boarding": 0
  },
  {
    "stop_id": "PH139",
    "stop_code": "",
    "stop_name": "PH139-Parada 3 / Paradero 3 Santa Rosa",
    "stop_lat": -33.480602473913,
    "stop_lon": -70.6418130001069,
    "stop_url": "",
    "wheelchair_boarding": 0
  },
  {
    "stop_id": "PH140",
    "stop_code": "",
    "stop_name": "PH140-Parada 3 / Hospital Trudeau",
    "stop_lat": -33.4838824658455,
    "stop_lon": -70.6414319055461,
    "stop_url": "",
    "wheelchair_boarding": 0
  },
  {
    "stop_id": "PH141",
    "stop_code": "",
    "stop_name": "PH141-Parada 3 / Paradero 6 Santa Rosa",
    "stop_lat": -33.4877404883623,
    "stop_lon": -70.6409040004532,
    "stop_url": "",
    "wheelchair_boarding": 0
  },
  {
    "stop_id": "PH142",
    "stop_code": "",
    "stop_name": "PH142-Parada 3 / Paradero 8 Santa Rosa",
    "stop_lat": -33.4917884965723,
    "stop_lon": -70.6403750001953,
    "stop_url": "",
    "wheelchair_boarding": 0
  },
  {
    "stop_id": "PH143",
    "stop_code": "",
    "stop_name": "PH143-Parada 3 / Paradero 9 Santa Rosa",
    "stop_lat": -33.4949035033708,
    "stop_lon": -70.6399300003587,
    "stop_url": "",
    "wheelchair_boarding": 0
  },
  {
    "stop_id": "PH144",
    "stop_code": "",
    "stop_name": "PH144-Parada 3 / Paradero 9 1/2 Santa Rosa",
    "stop_lat": -33.4974765071868,
    "stop_lon": -70.6396339997815,
    "stop_url": "",
    "wheelchair_boarding": 0
  },
  {
    "stop_id": "PH145",
    "stop_code": "",
    "stop_name": "PH145-Parada 3 / Paradero 11 Santa Rosa",
    "stop_lat": -33.5022115154299,
    "stop_lon": -70.6391520000669,
    "stop_url": "",
    "wheelchair_boarding": 0
  },
  {
    "stop_id": "PH146",
    "stop_code": "",
    "stop_name": "PH146-Parada 7 / Departamental - Santa Rosa",
    "stop_lat": -33.5065945218126,
    "stop_lon": -70.6387100003414,
    "stop_url": "",
    "wheelchair_boarding": 0
  },
  {
    "stop_id": "PH147",
    "stop_code": "",
    "stop_name": "PH147-Parada 1 / Paradero 13 Santa Rosa",
    "stop_lat": -33.5107525351891,
    "stop_lon": -70.6378480004288,
    "stop_url": "",
    "wheelchair_boarding": 0
  },
  {
    "stop_id": "PH148",
    "stop_code": "",
    "stop_name": "PH148-Parada 1 / Paradero 14 Santa Rosa",
    "stop_lat": -33.5137475443267,
    "stop_lon": -70.637243000094,
    "stop_url": "",
    "wheelchair_boarding": 0
  },
  {
    "stop_id": "PH149",
    "stop_code": "",
    "stop_name": "PH149-Parada 1 / Paradero 16 Santa Rosa",
    "stop_lat": -33.5177375518037,
    "stop_lon": -70.6367939999076,
    "stop_url": "",
    "wheelchair_boarding": 0
  },
  {
    "stop_id": "PG90",
    "stop_code": "",
    "stop_name": "PG90-Parada 3 / Paradero 18 Santa Rosa",
    "stop_lat": -33.5223265587506,
    "stop_lon": -70.6363250000605,
    "stop_url": "",
    "wheelchair_boarding": 0
  },
  {
    "stop_id": "PG91",
    "stop_code": "",
    "stop_name": "PG91-Parada 1 / Paradero 19 Santa Rosa",
    "stop_lat": -33.5259755648735,
    "stop_lon": -70.6359049997442,
    "stop_url": "",
    "wheelchair_boarding": 0
  },
  {
    "stop_id": "PG92",
    "stop_code": "",
    "stop_name": "PG92-Parada 1 / Paradero 21 Santa Rosa",
    "stop_lat": -33.5298905738926,
    "stop_lon": -70.6353470000341,
    "stop_url": "",
    "wheelchair_boarding": 0
  },
  {
    "stop_id": "PG93",
    "stop_code": "",
    "stop_name": "PG93-Parada 1 / Paradero 22 Santa Rosa",
    "stop_lat": -33.5336705823478,
    "stop_lon": -70.6347649997621,
    "stop_url": "",
    "wheelchair_boarding": 0
  },
  {
    "stop_id": "PG94",
    "stop_code": "",
    "stop_name": "PG94-Parada 1 / Paradero 23 Santa Rosa",
    "stop_lat": -33.5385271447235,
    "stop_lon": -70.6344889353417,
    "stop_url": "",
    "wheelchair_boarding": 0
  },
  {
    "stop_id": "PG116",
    "stop_code": "",
    "stop_name": "PG116-Parada 8 / (M) Santa Rosa",
    "stop_lat": -33.5418505902107,
    "stop_lon": -70.6342419999389,
    "stop_url": "",
    "wheelchair_boarding": 0
  },
  {
    "stop_id": "PG254",
    "stop_code": "",
    "stop_name": "PG254-Parada 1 / Paradero 26 Santa Rosa",
    "stop_lat": -33.5459046000589,
    "stop_lon": -70.6336519999384,
    "stop_url": "",
    "wheelchair_boarding": 0
  },
  {
    "stop_id": "PE1294",
    "stop_code": "",
    "stop_name": "PE1294-Parada 3 / Paradero 28 Santa Rosa",
    "stop_lat": -33.5502036126289,
    "stop_lon": -70.63281200017,
    "stop_url": "",
    "wheelchair_boarding": 0
  },
  {
    "stop_id": "PG97",
    "stop_code": "",
    "stop_name": "PG97-Parada 3 / Hospital Padre Hurtado",
    "stop_lat": -33.5534206237106,
    "stop_lon": -70.6321129996616,
    "stop_url": "",
    "wheelchair_boarding": 0
  },
  {
    "stop_id": "PG1611",
    "stop_code": "",
    "stop_name": "PG1611-Parada 5 / Paradero 30 Santa Rosa",
    "stop_lat": -33.5578120149771,
    "stop_lon": -70.63126420056,
    "stop_url": "",
    "wheelchair_boarding": 0
  },
  {
    "stop_id": "PG1617",
    "stop_code": "",
    "stop_name": "PG1617-Parada 6 / Santo Tomás - Santa Rosa",
    "stop_lat": -33.5603813574494,
    "stop_lon": -70.6307569195889,
    "stop_url": "",
    "wheelchair_boarding": 0
  },
  {
    "stop_id": "PG1464",
    "stop_code": "",
    "stop_name": "PG1464-Violeta Parra / Esq. El Bosque",
    "stop_lat": -33.5610815898195,
    "stop_lon": -70.6342350000485,
    "stop_url": "",
    "wheelchair_boarding": 0
  },
  {
    "stop_id": "PG100",
    "stop_code": "",
    "stop_name": "PG100-Violeta Parra / Esq. P. Aguirre Cerda",
    "stop_lat": -33.5609205310541,
    "stop_lon": -70.6379610000106,
    "stop_url": "",
    "wheelchair_boarding": 0
  },
  {
    "stop_id": "PG101",
    "stop_code": "",
    "stop_name": "PG101-Violeta Parra / Esq. Santa Pilar",
    "stop_lat": -33.560819189279,
    "stop_lon": -70.6403445073093,
    "stop_url": "",
    "wheelchair_boarding": 0
  },
  {
    "stop_id": "PG102",
    "stop_code": "",
    "stop_name": "PG102-Violeta Parra / Esq. Los Almendros",
    "stop_lat": -33.5605344320539,
    "stop_lon": -70.6441909995391,
    "stop_url": "",
    "wheelchair_boarding": 0
  },
  {
    "stop_id": "PG103",
    "stop_code": "",
    "stop_name": "PG103-Violeta Parra / Esq. A. Latorre",
    "stop_lat": -33.5603954008392,
    "stop_lon": -70.6461500002114,
    "stop_url": "",
    "wheelchair_boarding": 0
  },
  {
    "stop_id": "PG1129",
    "stop_code": "",
    "stop_name": "PG1129-Violeta Parra / Esq. Av. La Bandera",
    "stop_lat": -33.5602929328618,
    "stop_lon": -70.6480888783744,
    "stop_url": "",
    "wheelchair_boarding": 0
  },
  {
    "stop_id": "PG1130",
    "stop_code": "",
    "stop_name": "PG1130-Violeta Parra / Esq. Isabel De Hungría",
    "stop_lat": -33.5601803359653,
    "stop_lon": -70.650199999663,
    "stop_url": "",
    "wheelchair_boarding": 0
  },
  {
    "stop_id": "PG1131",
    "stop_code": "",
    "stop_name": "PG1131-Violeta Parra / Esq. San Manuel",
    "stop_lat": -33.5599710774936,
    "stop_lon": -70.6527669048735,
    "stop_url": "",
    "wheelchair_boarding": 0
  },
  {
    "stop_id": "PG1132",
    "stop_code": "",
    "stop_name": "PG1132-Violeta Parra / Esq. Av. San Francisco",
    "stop_lat": -33.5597482434296,
    "stop_lon": -70.6558570003765,
    "stop_url": "",
    "wheelchair_boarding": 0
  },
  {
    "stop_id": "PG301",
    "stop_code": "",
    "stop_name": "PG301-Av. San Francisco / Esq. Los Peucos",
    "stop_lat": -33.561833228194,
    "stop_lon": -70.6567870004516,
    "stop_url": "",
    "wheelchair_boarding": 0
  },
  {
    "stop_id": "PG1267",
    "stop_code": "",
    "stop_name": "PG1267-Av. Observatorio / Esq. Las Araucarias",
    "stop_lat": -33.5621322044841,
    "stop_lon": -70.6582730003867,
    "stop_url": "",
    "wheelchair_boarding": 0
  },
  {
    "stop_id": "PG1268",
    "stop_code": "",
    "stop_name": "PG1268-Av. Observatorio / Esq. Julio Covarrubias",
    "stop_lat": -33.5615421432081,
    "stop_lon": -70.6619770002642,
    "stop_url": "",
    "wheelchair_boarding": 0
  },
  {
    "stop_id": "PG1269",
    "stop_code": "",
    "stop_name": "PG1269-Av. Observatorio / Esq. Los Avellanos",
    "stop_lat": -33.5611731055453,
    "stop_lon": -70.6642560002358,
    "stop_url": "",
    "wheelchair_boarding": 0
  },
  {
    "stop_id": "PG1673",
    "stop_code": "",
    "stop_name": "PG1673-Los Raulíes / Esq. Antonio Varas",
    "stop_lat": -33.562834266878,
    "stop_lon": -70.6656455845219,
    "stop_url": "",
    "wheelchair_boarding": 0
  },
  {
    "stop_id": "PG572",
    "stop_code": "",
    "stop_name": "PG572-Los Raulíes / Esq. Santa Elena",
    "stop_lat": -33.5654063658395,
    "stop_lon": -70.6662604818625,
    "stop_url": "",
    "wheelchair_boarding": 0
  },
  {
    "stop_id": "PG573",
    "stop_code": "",
    "stop_name": "PG573-Los Raulíes / Esq. El Conquistador",
    "stop_lat": -33.5671980644567,
    "stop_lon": -70.6667169999586,
    "stop_url": "",
    "wheelchair_boarding": 0
  },
  {
    "stop_id": "PG574",
    "stop_code": "",
    "stop_name": "PG574-Los Raulíes / Esq. El Libertador",
    "stop_lat": -33.56971088769,
    "stop_lon": -70.6674009548149,
    "stop_url": "",
    "wheelchair_boarding": 0
  },
  {
    "stop_id": "PG575",
    "stop_code": "",
    "stop_name": "PG575-Los Raulíes / Esq. Lo Martínez",
    "stop_lat": -33.5722107827972,
    "stop_lon": -70.6680524794917,
    "stop_url": "",
    "wheelchair_boarding": 0
  },
  {
    "stop_id": "PG576",
    "stop_code": "",
    "stop_name": "PG576-Parada / Cesfam Haydée López",
    "stop_lat": -33.5725740994203,
    "stop_lon": -70.6670599524003,
    "stop_url": "",
    "wheelchair_boarding": 0
  },
  {
    "stop_id": "PG577",
    "stop_code": "",
    "stop_name": "PG577-Lo Martínez / Esq. Los Minbres",
    "stop_lat": -33.5729690948568,
    "stop_lon": -70.6648709999398,
    "stop_url": "",
    "wheelchair_boarding": 0
  },
  {
    "stop_id": "PG578",
    "stop_code": "",
    "stop_name": "PG578-Lo Martínez / Esq. San Francisco",
    "stop_lat": -33.5737511689759,
    "stop_lon": -70.6603959995255,
    "stop_url": "",
    "wheelchair_boarding": 0
  },
  {
    "stop_id": "PG150",
    "stop_code": "",
    "stop_name": "PG150-Av. San Francisco / Esq. General Carvajal",
    "stop_lat": -33.5755712202615,
    "stop_lon": -70.6607167250813,
    "stop_url": "",
    "wheelchair_boarding": 0
  },
  {
    "stop_id": "PG151",
    "stop_code": "",
    "stop_name": "PG151-Av. San Francisco / Esq. San Clemente",
    "stop_lat": -33.5780059200845,
    "stop_lon": -70.6613654203734,
    "stop_url": "",
    "wheelchair_boarding": 0
  },
  {
    "stop_id": "PG152",
    "stop_code": "",
    "stop_name": "PG152-Av. San Francisco / Esq. Sargento Rebolledo",
    "stop_lat": -33.5799471762652,
    "stop_lon": -70.6619015910329,
    "stop_url": "",
    "wheelchair_boarding": 0
  },
  {
    "stop_id": "PG153",
    "stop_code": "",
    "stop_name": "PG153-Av. San Francisco / Esq. Vecinar Sur",
    "stop_lat": -33.581905134281,
    "stop_lon": -70.6624339996674,
    "stop_url": "",
    "wheelchair_boarding": 0
  },
  {
    "stop_id": "PG1761",
    "stop_code": "",
    "stop_name": "PG1761-Av. San Francisco / Esq. Las Parcelas",
    "stop_lat": -33.5834701274067,
    "stop_lon": -70.6628559995737,
    "stop_url": "",
    "wheelchair_boarding": 0
  },
  {
    "stop_id": "PG1757",
    "stop_code": "",
    "stop_name": "PG1757-Avenida Lo Blanco / Esq. V. Pérez Rosales",
    "stop_lat": -33.5852581307792,
    "stop_lon": -70.6626589996556,
    "stop_url": "",
    "wheelchair_boarding": 0
  },
  {
    "stop_id": "PG1756",
    "stop_code": "",
    "stop_name": "PG1756-Avenida Lo Blanco / Esq. Tte. L. Cruz Martínez",
    "stop_lat": -33.5854881588502,
    "stop_lon": -70.6609680000156,
    "stop_url": "",
    "wheelchair_boarding": 0
  },
  {
    "stop_id": "PG1779",
    "stop_code": "",
    "stop_name": "PG1779-Tucapel / Esq. Av. San Francisco",
    "stop_lat": -33.5869921163959,
    "stop_lon": -70.6635330005133,
    "stop_url": "",
    "wheelchair_boarding": 0
  },
  {
    "stop_id": "PG950",
    "stop_code": "",
    "stop_name": "PG950-Av. San Francisco / Esq. Avenida Lo Blanco",
    "stop_lat": -33.5854411201014,
    "stop_lon": -70.6632979996574,
    "stop_url": "",
    "wheelchair_boarding": 0
  },
  {
    "stop_id": "PG233",
    "stop_code": "",
    "stop_name": "PG233-Av. San Francisco / Esq. Julio Barrenechea",
    "stop_lat": -33.582636133912,
    "stop_lon": -70.6624640000895,
    "stop_url": "",
    "wheelchair_boarding": 0
  },
  {
    "stop_id": "PG159",
    "stop_code": "",
    "stop_name": "PG159-Av. San Francisco / Esq. Sgto. D. Rebolledo",
    "stop_lat": -33.5803451444379,
    "stop_lon": -70.6618319995445,
    "stop_url": "",
    "wheelchair_boarding": 0
  },
  {
    "stop_id": "PG160",
    "stop_code": "",
    "stop_name": "PG160-Av. San Francisco / Esq. Bernardino Parada",
    "stop_lat": -33.5773551584366,
    "stop_lon": -70.6610229995413,
    "stop_url": "",
    "wheelchair_boarding": 0
  },
  {
    "stop_id": "PG161",
    "stop_code": "",
    "stop_name": "PG161-Av. San Francisco / Esq. Río Loa",
    "stop_lat": -33.5755461660956,
    "stop_lon": -70.6605650005362,
    "stop_url": "",
    "wheelchair_boarding": 0
  },
  {
    "stop_id": "PG628",
    "stop_code": "",
    "stop_name": "PG628-Lo Martínez / Esq. Los Andes",
    "stop_lat": -33.5731673273866,
    "stop_lon": -70.6630676927205,
    "stop_url": "",
    "wheelchair_boarding": 0
  },
  {
    "stop_id": "PG629",
    "stop_code": "",
    "stop_name": "PG629-Parada / Cesfam Haydée López",
    "stop_lat": -33.5724908142051,
    "stop_lon": -70.6669769759998,
    "stop_url": "",
    "wheelchair_boarding": 0
  },
  {
    "stop_id": "PG630",
    "stop_code": "",
    "stop_name": "PG630-Los Raulíes / Esq. El Libertador",
    "stop_lat": -33.5701140534366,
    "stop_lon": -70.6673759999643,
    "stop_url": "",
    "wheelchair_boarding": 0
  },
  {
    "stop_id": "PG631",
    "stop_code": "",
    "stop_name": "PG631-Los Raulíes / Esq. Los Avellanos",
    "stop_lat": -33.5683762707168,
    "stop_lon": -70.6669138865646,
    "stop_url": "",
    "wheelchair_boarding": 0
  },
  {
    "stop_id": "PG632",
    "stop_code": "",
    "stop_name": "PG632-Los Raulíes / Esq. Santa Elena",
    "stop_lat": -33.5654340738841,
    "stop_lon": -70.6661640003472,
    "stop_url": "",
    "wheelchair_boarding": 0
  },
  {
    "stop_id": "PG633",
    "stop_code": "",
    "stop_name": "PG633-Los Raulíes / Esq. Antonio Varas",
    "stop_lat": -33.5632500822841,
    "stop_lon": -70.6656589997632,
    "stop_url": "",
    "wheelchair_boarding": 0
  },
  {
    "stop_id": "PG634",
    "stop_code": "",
    "stop_name": "PG634-Los Raulíes / Esq. Av. Observatorio",
    "stop_lat": -33.5613290892025,
    "stop_lon": -70.6652289995671,
    "stop_url": "",
    "wheelchair_boarding": 0
  },
  {
    "stop_id": "PG635",
    "stop_code": "",
    "stop_name": "PG635-Av. Observatorio / Esq. Los Avellanos",
    "stop_lat": -33.5612240990453,
    "stop_lon": -70.6646499995815,
    "stop_url": "",
    "wheelchair_boarding": 0
  },
  {
    "stop_id": "PG636",
    "stop_code": "",
    "stop_name": "PG636-Av. Observatorio / Esq. Los Mimbres",
    "stop_lat": -33.5615791358867,
    "stop_lon": -70.6623900004453,
    "stop_url": "",
    "wheelchair_boarding": 0
  },
  {
    "stop_id": "PG1239",
    "stop_code": "",
    "stop_name": "PG1239-Av. Observatorio / Esq. Los Pinares",
    "stop_lat": -33.5620851860174,
    "stop_lon": -70.6593500003604,
    "stop_url": "",
    "wheelchair_boarding": 0
  },
  {
    "stop_id": "PG1240",
    "stop_code": "",
    "stop_name": "PG1240-Av. Observatorio / Esq. San Francisco",
    "stop_lat": -33.5624473266692,
    "stop_lon": -70.6571222684957,
    "stop_url": "",
    "wheelchair_boarding": 0
  },
  {
    "stop_id": "PG312",
    "stop_code": "",
    "stop_name": "PG312-Av. San Francisco / Esq. Los Gorriones",
    "stop_lat": -33.5620812302037,
    "stop_lon": -70.6566649995945,
    "stop_url": "",
    "wheelchair_boarding": 0
  },
  {
    "stop_id": "PG313",
    "stop_code": "",
    "stop_name": "PG313-Av. San Francisco / Esq. Violeta Parra",
    "stop_lat": -33.559969238847,
    "stop_lon": -70.656160999773,
    "stop_url": "",
    "wheelchair_boarding": 0
  },
  {
    "stop_id": "PG1083",
    "stop_code": "",
    "stop_name": "PG1083-Violeta Parra / Esq. Las Bandurrias",
    "stop_lat": -33.5600852982431,
    "stop_lon": -70.6525320005195,
    "stop_url": "",
    "wheelchair_boarding": 0
  },
  {
    "stop_id": "PG1084",
    "stop_code": "",
    "stop_name": "PG1084-Violeta Parra / Esq. Fco. De Goya",
    "stop_lat": -33.5602883378899,
    "stop_lon": -70.6500800002387,
    "stop_url": "",
    "wheelchair_boarding": 0
  },
  {
    "stop_id": "PG1085",
    "stop_code": "",
    "stop_name": "PG1085-Violeta Parra / Esq. Av. La Bandera",
    "stop_lat": -33.560368364054,
    "stop_lon": -70.6484590001248,
    "stop_url": "",
    "wheelchair_boarding": 0
  },
  {
    "stop_id": "PG334",
    "stop_code": "",
    "stop_name": "PG334-Violeta Parra / Esq. A. Latorre",
    "stop_lat": -33.5604684713503,
    "stop_lon": -70.6465841954351,
    "stop_url": "",
    "wheelchair_boarding": 0
  },
  {
    "stop_id": "PG104",
    "stop_code": "",
    "stop_name": "PG104-Almirante Latorre / Esq. Celanova",
    "stop_lat": -33.5593071674738,
    "stop_lon": -70.6460944424274,
    "stop_url": "",
    "wheelchair_boarding": 0
  },
  {
    "stop_id": "PG105",
    "stop_code": "",
    "stop_name": "PG105-Almirante Latorre / Esq. Venancia Leiva",
    "stop_lat": -33.5564821821709,
    "stop_lon": -70.6454870955286,
    "stop_url": "",
    "wheelchair_boarding": 0
  },
  {
    "stop_id": "PG106",
    "stop_code": "",
    "stop_name": "PG106-Venancia Leiva / Esq. El Nogal",
    "stop_lat": -33.5568794667947,
    "stop_lon": -70.6420400004242,
    "stop_url": "",
    "wheelchair_boarding": 0
  },
  {
    "stop_id": "PG107",
    "stop_code": "",
    "stop_name": "PG107-Venancia Leiva / Esq. P. Aguirre Cerda",
    "stop_lat": -33.5574446436002,
    "stop_lon": -70.6377777523367,
    "stop_url": "",
    "wheelchair_boarding": 0
  },
  {
    "stop_id": "PG108",
    "stop_code": "",
    "stop_name": "PG108-Venancia Leiva / Esq. La Pradera",
    "stop_lat": -33.5576965618325,
    "stop_lon": -70.6360280003856,
    "stop_url": "",
    "wheelchair_boarding": 0
  },
  {
    "stop_id": "PG109",
    "stop_code": "",
    "stop_name": "PG109-Venancia Leiva / Esq. El Bosque",
    "stop_lat": -33.5579225882322,
    "stop_lon": -70.6343539997882,
    "stop_url": "",
    "wheelchair_boarding": 0
  },
  {
    "stop_id": "PG110",
    "stop_code": "",
    "stop_name": "PG110-Venancia Leiva / Esq. Av. Santa Rosa",
    "stop_lat": -33.5581056090196,
    "stop_lon": -70.6330369995453,
    "stop_url": "",
    "wheelchair_boarding": 0
  },
  {
    "stop_id": "PE63",
    "stop_code": "",
    "stop_name": "PE63-Parada 2 / Paradero 30 Santa Rosa",
    "stop_lat": -33.5563339586215,
    "stop_lon": -70.6313148576465,
    "stop_url": "",
    "wheelchair_boarding": 0
  },
  {
    "stop_id": "PE71",
    "stop_code": "",
    "stop_name": "PE71-Parada 2 / Hospital Padre Hurtado",
    "stop_lat": -33.5530297135045,
    "stop_lon": -70.632043869727,
    "stop_url": "",
    "wheelchair_boarding": 0
  },
  {
    "stop_id": "PE112",
    "stop_code": "",
    "stop_name": "PE112-Parada 2 / Paradero 28 Santa Rosa",
    "stop_lat": -33.5497226134572,
    "stop_lon": -70.6327660000388,
    "stop_url": "",
    "wheelchair_boarding": 0
  },
  {
    "stop_id": "PE113",
    "stop_code": "",
    "stop_name": "PE113-Parada 2 / Paradero 26 Santa Rosa",
    "stop_lat": -33.545589639639,
    "stop_lon": -70.6335750648074,
    "stop_url": "",
    "wheelchair_boarding": 0
  },
  {
    "stop_id": "PE114",
    "stop_code": "",
    "stop_name": "PE114-Parada 4 / (M) Santa Rosa",
    "stop_lat": -33.5431240495518,
    "stop_lon": -70.6339759336312,
    "stop_url": "",
    "wheelchair_boarding": 0
  },
  {
    "stop_id": "PE66",
    "stop_code": "",
    "stop_name": "PE66-Parada 4 / Paradero 23 Santa Rosa",
    "stop_lat": -33.5379110719957,
    "stop_lon": -70.6343492825686,
    "stop_url": "",
    "wheelchair_boarding": 0
  },
  {
    "stop_id": "PE67",
    "stop_code": "",
    "stop_name": "PE67-Parada 2 / Paradero 22 Santa Rosa",
    "stop_lat": -33.5338725858084,
    "stop_lon": -70.6345409996724,
    "stop_url": "",
    "wheelchair_boarding": 0
  },
  {
    "stop_id": "PE68",
    "stop_code": "",
    "stop_name": "PE68-Parada 4 / Paradero 20 Santa Rosa",
    "stop_lat": -33.5291707449996,
    "stop_lon": -70.6353158899216,
    "stop_url": "",
    "wheelchair_boarding": 0
  },
  {
    "stop_id": "PE69",
    "stop_code": "",
    "stop_name": "PE69-Parada 4 / Paradero 19 Santa Rosa",
    "stop_lat": -33.5262615684734,
    "stop_lon": -70.6356729997563,
    "stop_url": "",
    "wheelchair_boarding": 0
  },
  {
    "stop_id": "PE70",
    "stop_code": "",
    "stop_name": "PE70-Parada 4 / Paradero 18 Santa Rosa",
    "stop_lat": -33.5216265609412,
    "stop_lon": -70.636186000549,
    "stop_url": "",
    "wheelchair_boarding": 0
  },
  {
    "stop_id": "PH150",
    "stop_code": "",
    "stop_name": "PH150-Parada 4 / Paradero 16 Santa Rosa",
    "stop_lat": -33.517329553489,
    "stop_lon": -70.6366819997101,
    "stop_url": "",
    "wheelchair_boarding": 0
  },
  {
    "stop_id": "PH151",
    "stop_code": "",
    "stop_name": "PH151-Parada 4 / Paradero 14 Santa Rosa",
    "stop_lat": -33.5133535468482,
    "stop_lon": -70.6371310005213,
    "stop_url": "",
    "wheelchair_boarding": 0
  },
  {
    "stop_id": "PH152",
    "stop_code": "",
    "stop_name": "PH152-Parada 4 / Paradero 13 Santa Rosa",
    "stop_lat": -33.5103705366533,
    "stop_lon": -70.6377700000998,
    "stop_url": "",
    "wheelchair_boarding": 0
  },
  {
    "stop_id": "PH153",
    "stop_code": "",
    "stop_name": "PH153-Parada 1 / Departamental - Santa Rosa",
    "stop_lat": -33.5065230535023,
    "stop_lon": -70.6385539529879,
    "stop_url": "",
    "wheelchair_boarding": 0
  },
  {
    "stop_id": "PH154",
    "stop_code": "",
    "stop_name": "PH154-Parada 2 / Paradero 11 Santa Rosa",
    "stop_lat": -33.5018230610799,
    "stop_lon": -70.6390049051532,
    "stop_url": "",
    "wheelchair_boarding": 0
  },
  {
    "stop_id": "PH155",
    "stop_code": "",
    "stop_name": "PH155-Parada 2 / Paradero 9 1/2 Santa Rosa",
    "stop_lat": -33.4970985094016,
    "stop_lon": -70.6395070004389,
    "stop_url": "",
    "wheelchair_boarding": 0
  },
  {
    "stop_id": "PH156",
    "stop_code": "",
    "stop_name": "PH156-Parada 2 / Paradero 9 Santa Rosa",
    "stop_lat": -33.4945763803756,
    "stop_lon": -70.6398160453708,
    "stop_url": "",
    "wheelchair_boarding": 0
  },
  {
    "stop_id": "PH157",
    "stop_code": "",
    "stop_name": "PH157-Parada 2 / Paradero 8 Santa Rosa",
    "stop_lat": -33.4913724977122,
    "stop_lon": -70.6402659999696,
    "stop_url": "",
    "wheelchair_boarding": 0
  },
  {
    "stop_id": "PH158",
    "stop_code": "",
    "stop_name": "PH158-Parada 4 / Paradero 6 Santa Rosa",
    "stop_lat": -33.4874075667399,
    "stop_lon": -70.6407872168276,
    "stop_url": "",
    "wheelchair_boarding": 0
  },
  {
    "stop_id": "PH159",
    "stop_code": "",
    "stop_name": "PH159-Parada 2 / Hospital Trudeau",
    "stop_lat": -33.4835151085981,
    "stop_lon": -70.6413115046516,
    "stop_url": "",
    "wheelchair_boarding": 0
  },
  {
    "stop_id": "PH160",
    "stop_code": "",
    "stop_name": "PH160-Parada 2 / Paradero 3 Santa Rosa",
    "stop_lat": -33.4802022062494,
    "stop_lon": -70.6416695801201,
    "stop_url": "",
    "wheelchair_boarding": 0
  },
  {
    "stop_id": "PH161",
    "stop_code": "",
    "stop_name": "PH161-Parada 2 / (M) Bío Bío",
    "stop_lat": -33.4779314758735,
    "stop_lon": -70.6416879998467,
    "stop_url": "",
    "wheelchair_boarding": 0
  },
  {
    "stop_id": "PA100",
    "stop_code": "",
    "stop_name": "PA100-Parada 2 / Persa Bío Bío",
    "stop_lat": -33.4740479983079,
    "stop_lon": -70.6419304826949,
    "stop_url": "",
    "wheelchair_boarding": 0
  },
  {
    "stop_id": "PA101",
    "stop_code": "",
    "stop_name": "PA101-Parada 2 / Franklin - Santa Rosa",
    "stop_lat": -33.4719834703155,
    "stop_lon": -70.6420359997944,
    "stop_url": "",
    "wheelchair_boarding": 0
  },
  {
    "stop_id": "PA102",
    "stop_code": "",
    "stop_name": "PA102-Parada 2 / Sargento Aldea - Santa Rosa",
    "stop_lat": -33.4686134673738,
    "stop_lon": -70.6422349995902,
    "stop_url": "",
    "wheelchair_boarding": 0
  },
  {
    "stop_id": "PA103",
    "stop_code": "",
    "stop_name": "PA103-Parada 2 / Miguel León Prado - Santa Rosa",
    "stop_lat": -33.4646375211929,
    "stop_lon": -70.6424061777282,
    "stop_url": "",
    "wheelchair_boarding": 0
  },
  {
    "stop_id": "PA104",
    "stop_code": "",
    "stop_name": "PA104-Parada 2 / Hospital Sn. Borja Arriarán",
    "stop_lat": -33.4608829139652,
    "stop_lon": -70.6428511598493,
    "stop_url": "",
    "wheelchair_boarding": 0
  },
  {
    "stop_id": "PA105",
    "stop_code": "",
    "stop_name": "PA105-Parada 1 / (M) Matta",
    "stop_lat": -33.4576574312719,
    "stop_lon": -70.6432669323009,
    "stop_url": "",
    "wheelchair_boarding": 0
  },
  {
    "stop_id": "PA106",
    "stop_code": "",
    "stop_name": "PA106-Parada 2 / Colegio Santa María",
    "stop_lat": -33.4521094386371,
    "stop_lon": -70.6440989996392,
    "stop_url": "",
    "wheelchair_boarding": 0
  },
  {
    "stop_id": "PA107",
    "stop_code": "",
    "stop_name": "PA107-Parada 2 / Cóndor - Santa Rosa",
    "stop_lat": -33.449854432802,
    "stop_lon": -70.6444810003891,
    "stop_url": "",
    "wheelchair_boarding": 0
  },
  {
    "stop_id": "PA108",
    "stop_code": "",
    "stop_name": "PA108-Parada 4 / Eleuterio Ramírez - Santa Rosa",
    "stop_lat": -33.446938892222,
    "stop_lon": -70.6450688769314,
    "stop_url": "",
    "wheelchair_boarding": 0
  },
  {
    "stop_id": "PA109",
    "stop_code": "",
    "stop_name": "PA109-Parada 8 / (M) Santa Lucía",
    "stop_lat": -33.4430685180803,
    "stop_lon": -70.6461110039539,
    "stop_url": "",
    "wheelchair_boarding": 0
  },
  {
    "stop_id": "PA111",
    "stop_code": "",
    "stop_name": "PA111-Parada 2 / Iglesia La Merced",
    "stop_lat": -33.4384254472184,
    "stop_lon": -70.6468991007028,
    "stop_url": "",
    "wheelchair_boarding": 0
  },
  {
    "stop_id": "PA112",
    "stop_code": "",
    "stop_name": "PA112-Parada 2 / Casa De Los Velasco",
    "stop_lat": -33.4361114634565,
    "stop_lon": -70.6472506693326,
    "stop_url": "",
    "wheelchair_boarding": 0
  },
  {
    "stop_id": "PA160",
    "stop_code": "",
    "stop_name": "PA160-Parada 2 / Iglesia San Pedro",
    "stop_lat": -33.4347398431902,
    "stop_lon": -70.6474564341641,
    "stop_url": "",
    "wheelchair_boarding": 0
  },
  {
    "stop_id": "PB159",
    "stop_code": "",
    "stop_name": "PB159-Parada 4 / Recoleta Franciscana",
    "stop_lat": -33.431811383077,
    "stop_lon": -70.6476399997567,
    "stop_url": "",
    "wheelchair_boarding": 0
  },
  {
    "stop_id": "PB161",
    "stop_code": "",
    "stop_name": "PB161-Parada / (M) Patronato",
    "stop_lat": -33.4288904545266,
    "stop_lon": -70.6466918881482,
    "stop_url": "",
    "wheelchair_boarding": 0
  },
  {
    "stop_id": "PB162",
    "stop_code": "",
    "stop_name": "PB162-Parada / Clínica Dávila",
    "stop_lat": -33.4273994045576,
    "stop_lon": -70.6462860002365,
    "stop_url": "",
    "wheelchair_boarding": 0
  },
  {
    "stop_id": "PB163",
    "stop_code": "",
    "stop_name": "PB163-Avenida Recoleta / Esq. Dominica",
    "stop_lat": -33.4255523083714,
    "stop_lon": -70.6457322706378,
    "stop_url": "",
    "wheelchair_boarding": 0
  },
  {
    "stop_id": "PB319",
    "stop_code": "",
    "stop_name": "PB319-Parada 2 / (M) Cerro Blanco",
    "stop_lat": -33.4225015522822,
    "stop_lon": -70.6448398111022,
    "stop_url": "",
    "wheelchair_boarding": 0
  },
  {
    "stop_id": "PB320",
    "stop_code": "",
    "stop_name": "PB320-Avenida Recoleta / Esq. El Salto Chico",
    "stop_lat": -33.4183596512153,
    "stop_lon": -70.6437647866474,
    "stop_url": "",
    "wheelchair_boarding": 0
  },
  {
    "stop_id": "PB321",
    "stop_code": "",
    "stop_name": "PB321-Avenida Recoleta / Esq. Unión",
    "stop_lat": -33.4168865777744,
    "stop_lon": -70.6436238932918,
    "stop_url": "",
    "wheelchair_boarding": 0
  },
  {
    "stop_id": "PB322",
    "stop_code": "",
    "stop_name": "PB322-Parada 2 / (M) Cementerios",
    "stop_lat": -33.4135114515769,
    "stop_lon": -70.643439000314,
    "stop_url": "",
    "wheelchair_boarding": 0
  },
  {
    "stop_id": "PB323",
    "stop_code": "",
    "stop_name": "PB323-Avenida Recoleta / Esq. Doctor Ostornol",
    "stop_lat": -33.410836453107,
    "stop_lon": -70.6433230000342,
    "stop_url": "",
    "wheelchair_boarding": 0
  },
  {
    "stop_id": "PB324",
    "stop_code": "",
    "stop_name": "PB324-Avenida Recoleta / Esq. Avenida México",
    "stop_lat": -33.4085724551759,
    "stop_lon": -70.6431980001125,
    "stop_url": "",
    "wheelchair_boarding": 0
  },
  {
    "stop_id": "PB325",
    "stop_code": "",
    "stop_name": "PB325-Parada 2 / (M) Einstein",
    "stop_lat": -33.4060814960119,
    "stop_lon": -70.6430919632938,
    "stop_url": "",
    "wheelchair_boarding": 0
  },
  {
    "stop_id": "PB326",
    "stop_code": "",
    "stop_name": "PB326-Avenida Recoleta / Esq. Av. Card. José Mª Caro",
    "stop_lat": -33.403512624645,
    "stop_lon": -70.6429151971242,
    "stop_url": "",
    "wheelchair_boarding": 0
  },
  {
    "stop_id": "PB327",
    "stop_code": "",
    "stop_name": "PB327-Avenida Recoleta / Esq. Muñoz Gamero",
    "stop_lat": -33.4012354617924,
    "stop_lon": -70.6428359995361,
    "stop_url": "",
    "wheelchair_boarding": 0
  },
  {
    "stop_id": "PB1729",
    "stop_code": "",
    "stop_name": "PB1729-Avenida Recoleta / Esq. Estadio",
    "stop_lat": -33.3986935565664,
    "stop_lon": -70.6427179892079,
    "stop_url": "",
    "wheelchair_boarding": 0
  },
  {
    "stop_id": "PB328",
    "stop_code": "",
    "stop_name": "PB328-Parada 2 / (M) Dorsal",
    "stop_lat": -33.3973664916765,
    "stop_lon": -70.642654036029,
    "stop_url": "",
    "wheelchair_boarding": 0
  },
  {
    "stop_id": "PB329",
    "stop_code": "",
    "stop_name": "PB329-Avenida Recoleta / Esq. Ortiz De Rozas",
    "stop_lat": -33.3942354665802,
    "stop_lon": -70.6425149998223,
    "stop_url": "",
    "wheelchair_boarding": 0
  },
  {
    "stop_id": "PB330",
    "stop_code": "",
    "stop_name": "PB330-Parada 2 / (M) Zapadores",
    "stop_lat": -33.3915346318837,
    "stop_lon": -70.6423479356053,
    "stop_url": "",
    "wheelchair_boarding": 0
  },
  {
    "stop_id": "PB331",
    "stop_code": "",
    "stop_name": "PB331-Avenida Recoleta / Esq. Alfredo Rosende",
    "stop_lat": -33.3888634712494,
    "stop_lon": -70.6422550001774,
    "stop_url": "",
    "wheelchair_boarding": 0
  },
  {
    "stop_id": "PB332",
    "stop_code": "",
    "stop_name": "PB332-Avenida Recoleta / Esq. Adela Martínez",
    "stop_lat": -33.3862919629051,
    "stop_lon": -70.6416408147759,
    "stop_url": "",
    "wheelchair_boarding": 0
  },
  {
    "stop_id": "PB333",
    "stop_code": "",
    "stop_name": "PB333-Avenida Recoleta / Esq. Los Cardenales",
    "stop_lat": -33.3839694985988,
    "stop_lon": -70.6405650002039,
    "stop_url": "",
    "wheelchair_boarding": 0
  },
  {
    "stop_id": "PB334",
    "stop_code": "",
    "stop_name": "PB334-Avenida Recoleta / Esq. Av.Pdte. S.Allende",
    "stop_lat": -33.380913516418,
    "stop_lon": -70.6394490002469,
    "stop_url": "",
    "wheelchair_boarding": 0
  },
  {
    "stop_id": "PA115",
    "stop_code": "",
    "stop_name": "PA115-Parada 6 / (M) Santa Lucía",
    "stop_lat": -33.443064086899,
    "stop_lon": -70.6459762405141,
    "stop_url": "",
    "wheelchair_boarding": 0
  },
  {
    "stop_id": "PA116",
    "stop_code": "",
    "stop_name": "PA116-Carmen / Esq. Sara Del Campo",
    "stop_lat": -33.444173671173,
    "stop_lon": -70.6430899475496,
    "stop_url": "",
    "wheelchair_boarding": 0
  },
  {
    "stop_id": "PA117",
    "stop_code": "",
    "stop_name": "PA117-Carmen / Esq. Marín",
    "stop_lat": -33.4473350097874,
    "stop_lon": -70.6423944428379,
    "stop_url": "",
    "wheelchair_boarding": 0
  },
  {
    "stop_id": "PA118",
    "stop_code": "",
    "stop_name": "PA118-Carmen / Esq. Santa Isabel",
    "stop_lat": -33.4496744771876,
    "stop_lon": -70.6416880005052,
    "stop_url": "",
    "wheelchair_boarding": 0
  },
  {
    "stop_id": "PA119",
    "stop_code": "",
    "stop_name": "PA119-Carmen / Esq. Av. 10 De Julio",
    "stop_lat": -33.4524814897244,
    "stop_lon": -70.6408930003662,
    "stop_url": "",
    "wheelchair_boarding": 0
  },
  {
    "stop_id": "PA120",
    "stop_code": "",
    "stop_name": "PA120-Carmen / Esq. Coquimbo",
    "stop_lat": -33.4543425198747,
    "stop_lon": -70.6404482673176,
    "stop_url": "",
    "wheelchair_boarding": 0
  },
  {
    "stop_id": "PA121",
    "stop_code": "",
    "stop_name": "PA121-Carmen / Esq. Av. Manuel A. Matta",
    "stop_lat": -33.4571185083541,
    "stop_lon": -70.6397329995814,
    "stop_url": "",
    "wheelchair_boarding": 0
  },
  {
    "stop_id": "PA122",
    "stop_code": "",
    "stop_name": "PA122-Carmen / Esq. Santa Elvira",
    "stop_lat": -33.4604505507008,
    "stop_lon": -70.6388198276435,
    "stop_url": "",
    "wheelchair_boarding": 0
  },
  {
    "stop_id": "PA123",
    "stop_code": "",
    "stop_name": "PA123-Carmen / Esq. M. León Prado",
    "stop_lat": -33.4633085342092,
    "stop_lon": -70.6380529999769,
    "stop_url": "",
    "wheelchair_boarding": 0
  },
  {
    "stop_id": "PA124",
    "stop_code": "",
    "stop_name": "PA124-Carmen / Esq. Maule",
    "stop_lat": -33.4658993915014,
    "stop_lon": -70.6373657877002,
    "stop_url": "",
    "wheelchair_boarding": 0
  },
  {
    "stop_id": "PA125",
    "stop_code": "",
    "stop_name": "PA125-Carmen / Esq. Ñuble",
    "stop_lat": -33.4682385545548,
    "stop_lon": -70.6367420000187,
    "stop_url": "",
    "wheelchair_boarding": 0
  },
  {
    "stop_id": "PA126",
    "stop_code": "",
    "stop_name": "PA126-Carmen / Esq. Franklin",
    "stop_lat": -33.472177571179,
    "stop_lon": -70.6357059999373,
    "stop_url": "",
    "wheelchair_boarding": 0
  },
  {
    "stop_id": "PH162",
    "stop_code": "",
    "stop_name": "PH162-Carmen / Esq. Pintor Cicarelli",
    "stop_lat": -33.4763085877358,
    "stop_lon": -70.6346199997849,
    "stop_url": "",
    "wheelchair_boarding": 0
  },
  {
    "stop_id": "PH163",
    "stop_code": "",
    "stop_name": "PH163-Carmen / Esq. Isabel Riquelme",
    "stop_lat": -33.4784315958745,
    "stop_lon": -70.6340709999032,
    "stop_url": "",
    "wheelchair_boarding": 0
  },
  {
    "stop_id": "PH172",
    "stop_code": "",
    "stop_name": "PH172-Av. Las Industrias / Esq. Sierra Bella",
    "stop_lat": -33.4800996171689,
    "stop_lon": -70.6327340002996,
    "stop_url": "",
    "wheelchair_boarding": 0
  },
  {
    "stop_id": "PH164",
    "stop_code": "",
    "stop_name": "PH164-Parada 1 / Estadio San Joaquín",
    "stop_lat": -33.4849323275316,
    "stop_lon": -70.6294274326321,
    "stop_url": "",
    "wheelchair_boarding": 0
  },
  {
    "stop_id": "PH165",
    "stop_code": "",
    "stop_name": "PH165-Av. Las Industrias / Esq. Francis Drake",
    "stop_lat": -33.4871306930717,
    "stop_lon": -70.6295499809744,
    "stop_url": "",
    "wheelchair_boarding": 0
  },
  {
    "stop_id": "PH166",
    "stop_code": "",
    "stop_name": "PH166-Av. Las Industrias / Esq. Alc. P. Alarcón",
    "stop_lat": -33.4900916687482,
    "stop_lon": -70.629375999993,
    "stop_url": "",
    "wheelchair_boarding": 0
  },
  {
    "stop_id": "PH167",
    "stop_code": "",
    "stop_name": "PH167-Av. Las Industrias / Esq. Industria",
    "stop_lat": -33.4931766720559,
    "stop_lon": -70.6291949998306,
    "stop_url": "",
    "wheelchair_boarding": 0
  },
  {
    "stop_id": "PH168",
    "stop_code": "",
    "stop_name": "PH168-Av. Las Industrias / Esq. Av.Pdte. S.Allende",
    "stop_lat": -33.4955946816344,
    "stop_lon": -70.6285700004602,
    "stop_url": "",
    "wheelchair_boarding": 0
  },
  {
    "stop_id": "PH169",
    "stop_code": "",
    "stop_name": "PH169-Av. Las Industrias / Esq. Ureta Cox",
    "stop_lat": -33.4996316943727,
    "stop_lon": -70.6276919999391,
    "stop_url": "",
    "wheelchair_boarding": 0
  },
  {
    "stop_id": "PH170",
    "stop_code": "",
    "stop_name": "PH170-Av. Las Industrias / Esq. Pirámide",
    "stop_lat": -33.5028677051688,
    "stop_lon": -70.6270280001122,
    "stop_url": "",
    "wheelchair_boarding": 0
  },
  {
    "stop_id": "PH171",
    "stop_code": "",
    "stop_name": "PH171-Parada 3 / Departamental - Las Industrias",
    "stop_lat": -33.5070287177816,
    "stop_lon": -70.62615400026,
    "stop_url": "",
    "wheelchair_boarding": 0
  },
  {
    "stop_id": "PH1451",
    "stop_code": "",
    "stop_name": "PH1451-Av. Las Industrias / Esq. Varas Mena",
    "stop_lat": -33.5113897328806,
    "stop_lon": -70.6251700003308,
    "stop_url": "",
    "wheelchair_boarding": 0
  },
  {
    "stop_id": "PH173",
    "stop_code": "",
    "stop_name": "PH173-Av. Las Industrias / Esq. Avenida Lo Ovalle",
    "stop_lat": -33.5161177461718,
    "stop_lon": -70.6242830004299,
    "stop_url": "",
    "wheelchair_boarding": 0
  },
  {
    "stop_id": "PE72",
    "stop_code": "",
    "stop_name": "PE72-Parada 1 / Consultorio Padre Esteban Gumucio",
    "stop_lat": -33.5196287574433,
    "stop_lon": -70.6235490001129,
    "stop_url": "",
    "wheelchair_boarding": 0
  },
  {
    "stop_id": "PE73",
    "stop_code": "",
    "stop_name": "PE73-Av. Las Industrias / Esq. Calle I",
    "stop_lat": -33.5220008732992,
    "stop_lon": -70.6231765928633,
    "stop_url": "",
    "wheelchair_boarding": 0
  },
  {
    "stop_id": "PE1347",
    "stop_code": "",
    "stop_name": "PE1347-La Serena / Esq. La Victoria",
    "stop_lat": -33.5257103002625,
    "stop_lon": -70.6248961776417,
    "stop_url": "",
    "wheelchair_boarding": 0
  },
  {
    "stop_id": "PE1348",
    "stop_code": "",
    "stop_name": "PE1348-Linares / Esq. Petorca",
    "stop_lat": -33.527461232912,
    "stop_lon": -70.6239241165632,
    "stop_url": "",
    "wheelchair_boarding": 0
  },
  {
    "stop_id": "PE75",
    "stop_code": "",
    "stop_name": "PE75-Linares / Esq. Quilpué",
    "stop_lat": -33.5273087792184,
    "stop_lon": -70.6221330002451,
    "stop_url": "",
    "wheelchair_boarding": 0
  },
  {
    "stop_id": "PE76",
    "stop_code": "",
    "stop_name": "PE76-Linares / Esq. Lota",
    "stop_lat": -33.5270908165727,
    "stop_lon": -70.6196979996411,
    "stop_url": "",
    "wheelchair_boarding": 0
  },
  {
    "stop_id": "PE77",
    "stop_code": "",
    "stop_name": "PE77-Linares / Esq. Coronel",
    "stop_lat": -33.526866853153,
    "stop_lon": -70.6172659994855,
    "stop_url": "",
    "wheelchair_boarding": 0
  },
  {
    "stop_id": "PE78",
    "stop_code": "",
    "stop_name": "PE78-Linares / Esq. Cañete",
    "stop_lat": -33.5265569082745,
    "stop_lon": -70.61365000048,
    "stop_url": "",
    "wheelchair_boarding": 0
  },
  {
    "stop_id": "PE79",
    "stop_code": "",
    "stop_name": "PE79-Linares / Esq. Punta Arenas",
    "stop_lat": -33.5262339623685,
    "stop_lon": -70.6100669995574,
    "stop_url": "",
    "wheelchair_boarding": 0
  },
  {
    "stop_id": "PE1352",
    "stop_code": "",
    "stop_name": "PE1352-Punta Arenas / Esq. Combarbalá",
    "stop_lat": -33.5276044353232,
    "stop_lon": -70.6099325690796,
    "stop_url": "",
    "wheelchair_boarding": 0
  },
  {
    "stop_id": "PE80",
    "stop_code": "",
    "stop_name": "PE80-Parada / Hogar De María",
    "stop_lat": -33.5298097804982,
    "stop_lon": -70.607676960527,
    "stop_url": "",
    "wheelchair_boarding": 0
  },
  {
    "stop_id": "PE81",
    "stop_code": "",
    "stop_name": "PE81-Avenida Santa Raquel / Esq. Carahue",
    "stop_lat": -33.5332910613296,
    "stop_lon": -70.6034200002754,
    "stop_url": "",
    "wheelchair_boarding": 0
  },
  {
    "stop_id": "PE82",
    "stop_code": "",
    "stop_name": "PE82-Avenida Santa Raquel / Esq. Rojas Magallanes",
    "stop_lat": -33.5351182872468,
    "stop_lon": -70.6034793024785,
    "stop_url": "",
    "wheelchair_boarding": 0
  },
  {
    "stop_id": "PE83",
    "stop_code": "",
    "stop_name": "PE83-Avenida Santa Raquel / Esq. Dr. Sótero Del Rio",
    "stop_lat": -33.5388591386888,
    "stop_lon": -70.6035498770234,
    "stop_url": "",
    "wheelchair_boarding": 0
  },
  {
    "stop_id": "PE84",
    "stop_code": "",
    "stop_name": "PE84-Avenida Santa Raquel / Esq. Las Gardenias",
    "stop_lat": -33.5421390585791,
    "stop_lon": -70.6035790002031,
    "stop_url": "",
    "wheelchair_boarding": 0
  },
  {
    "stop_id": "PE85",
    "stop_code": "",
    "stop_name": "PE85-Avenida Santa Raquel / Esq. Avenida Trinidad",
    "stop_lat": -33.5466066600664,
    "stop_lon": -70.6037095004468,
    "stop_url": "",
    "wheelchair_boarding": 0
  },
  {
    "stop_id": "PE86",
    "stop_code": "",
    "stop_name": "PE86-Avenida Santa Raquel / Esq. José Miguel Carrera",
    "stop_lat": -33.5500402846804,
    "stop_lon": -70.6029207874545,
    "stop_url": "",
    "wheelchair_boarding": 0
  },
  {
    "stop_id": "PE87",
    "stop_code": "",
    "stop_name": "PE87-Avenida Santa Raquel / Esq. Sn. José De La.Estrella",
    "stop_lat": -33.5535680806847,
    "stop_lon": -70.60205300015,
    "stop_url": "",
    "wheelchair_boarding": 0
  },
  {
    "stop_id": "PE1320",
    "stop_code": "",
    "stop_name": "PE1320-Avenida Santa Raquel / Esq. Jaspe",
    "stop_lat": -33.5562429285903,
    "stop_lon": -70.6014500116857,
    "stop_url": "",
    "wheelchair_boarding": 0
  },
  {
    "stop_id": "PE88",
    "stop_code": "",
    "stop_name": "PE88-Avenida Santa Raquel / Esq. Gral. Arriagada",
    "stop_lat": -33.558497702834,
    "stop_lon": -70.6012730131133,
    "stop_url": "",
    "wheelchair_boarding": 0
  },
  {
    "stop_id": "PE89",
    "stop_code": "",
    "stop_name": "PE89-Avenida Santa Raquel / Esq. María Elena",
    "stop_lat": -33.5620114310313,
    "stop_lon": -70.6003139949997,
    "stop_url": "",
    "wheelchair_boarding": 0
  },
  {
    "stop_id": "PE90",
    "stop_code": "",
    "stop_name": "PE90-Avenida Santa Raquel / Esq. Rafael Matus",
    "stop_lat": -33.5650071702819,
    "stop_lon": -70.5984351367888,
    "stop_url": "",
    "wheelchair_boarding": 0
  },
  {
    "stop_id": "PF51",
    "stop_code": "",
    "stop_name": "PF51-Parada / Condominio Valle Verde",
    "stop_lat": -33.5681302589459,
    "stop_lon": -70.5980141220994,
    "stop_url": "",
    "wheelchair_boarding": 0
  },
  {
    "stop_id": "PF52",
    "stop_code": "",
    "stop_name": "PF52-Parada / Escuela Gabriela",
    "stop_lat": -33.5709331251895,
    "stop_lon": -70.5986056142616,
    "stop_url": "",
    "wheelchair_boarding": 0
  },
  {
    "stop_id": "PF53",
    "stop_code": "",
    "stop_name": "PF53-Av. Ejército Libertador / Esq. Omar Herrera G.",
    "stop_lat": -33.5730402102185,
    "stop_lon": -70.5995265856046,
    "stop_url": "",
    "wheelchair_boarding": 0
  },
  {
    "stop_id": "PF54",
    "stop_code": "",
    "stop_name": "PF54-Av. Ejército Libertador / Esq. Pedro Núñez F.",
    "stop_lat": -33.5759382179846,
    "stop_lon": -70.5989047530789,
    "stop_url": "",
    "wheelchair_boarding": 0
  },
  {
    "stop_id": "PF55",
    "stop_code": "",
    "stop_name": "PF55-Av. Ejército Libertador / Esq. Pedro Núñez F.",
    "stop_lat": -33.5779911317319,
    "stop_lon": -70.5984850002281,
    "stop_url": "",
    "wheelchair_boarding": 0
  },
  {
    "stop_id": "PF56",
    "stop_code": "",
    "stop_name": "PF56-Av. Ejército Libertador / Esq. Avenida Gabriela",
    "stop_lat": -33.5809710388628,
    "stop_lon": -70.5977081065619,
    "stop_url": "",
    "wheelchair_boarding": 0
  },
  {
    "stop_id": "PF57",
    "stop_code": "",
    "stop_name": "PF57-Av. Ejército Libertador / Esq. Angel Pimentel",
    "stop_lat": -33.583364147225,
    "stop_lon": -70.5974880247243,
    "stop_url": "",
    "wheelchair_boarding": 0
  },
  {
    "stop_id": "PF58",
    "stop_code": "",
    "stop_name": "PF58-Av. Ejército Libertador / Esq. Psje.Ob. Oscar Romero",
    "stop_lat": -33.5854231516402,
    "stop_lon": -70.5971269999183,
    "stop_url": "",
    "wheelchair_boarding": 0
  },
  {
    "stop_id": "PF59",
    "stop_code": "",
    "stop_name": "PF59-Av. Ejército Libertador / Esq. Luis Matte Larraín",
    "stop_lat": -33.5875021704682,
    "stop_lon": -70.5967869804776,
    "stop_url": "",
    "wheelchair_boarding": 0
  },
  {
    "stop_id": "PF60",
    "stop_code": "",
    "stop_name": "PF60-Parada / Consultorio Laura Vicuña",
    "stop_lat": -33.5901221633385,
    "stop_lon": -70.5962949998156,
    "stop_url": "",
    "wheelchair_boarding": 0
  },
  {
    "stop_id": "PF62",
    "stop_code": "",
    "stop_name": "PF62-Av. Ejército Libertador / Esq. Luis Matte Larraín",
    "stop_lat": -33.5878111616523,
    "stop_lon": -70.5964330004686,
    "stop_url": "",
    "wheelchair_boarding": 0
  },
  {
    "stop_id": "PF63",
    "stop_code": "",
    "stop_name": "PF63-Av. Ejército Libertador / Esq. Puquios",
    "stop_lat": -33.5852701553619,
    "stop_lon": -70.5968649998506,
    "stop_url": "",
    "wheelchair_boarding": 0
  },
  {
    "stop_id": "PF843",
    "stop_code": "",
    "stop_name": "PF843-Av. Ejército Libertador / Esq. Pasaje Chacabuco",
    "stop_lat": -33.5833108070602,
    "stop_lon": -70.5972206274166,
    "stop_url": "",
    "wheelchair_boarding": 0
  },
  {
    "stop_id": "PF64",
    "stop_code": "",
    "stop_name": "PF64-Av. Ejército Libertador / Esq. Avenida Gabriela",
    "stop_lat": -33.5816861486586,
    "stop_lon": -70.5973129995843,
    "stop_url": "",
    "wheelchair_boarding": 0
  },
  {
    "stop_id": "PF65",
    "stop_code": "",
    "stop_name": "PF65-Av. Ejército Libertador / Esq. Pedro Núñez F.",
    "stop_lat": -33.578406135194,
    "stop_lon": -70.5982790000502,
    "stop_url": "",
    "wheelchair_boarding": 0
  },
  {
    "stop_id": "PF66",
    "stop_code": "",
    "stop_name": "PF66-Av. Ejército Libertador / Esq. Bahía Fitz Roy",
    "stop_lat": -33.5756930944243,
    "stop_lon": -70.5986405860787,
    "stop_url": "",
    "wheelchair_boarding": 0
  },
  {
    "stop_id": "PF67",
    "stop_code": "",
    "stop_name": "PF67-Av. Ejército Libertador / Esq. Bahía Fitz Roy",
    "stop_lat": -33.5731489062489,
    "stop_lon": -70.5991620800932,
    "stop_url": "",
    "wheelchair_boarding": 0
  },
  {
    "stop_id": "PF68",
    "stop_code": "",
    "stop_name": "PF68-Parada / Escuela Gabriela",
    "stop_lat": -33.5710311358276,
    "stop_lon": -70.5982769996209,
    "stop_url": "",
    "wheelchair_boarding": 0
  },
  {
    "stop_id": "PF69",
    "stop_code": "",
    "stop_name": "PF69-Parada / Condominio Valle Verde",
    "stop_lat": -33.5682711435967,
    "stop_lon": -70.5977469999189,
    "stop_url": "",
    "wheelchair_boarding": 0
  },
  {
    "stop_id": "PE91",
    "stop_code": "",
    "stop_name": "PE91-Avenida Santa Raquel / Esq. Rafael Matus",
    "stop_lat": -33.5653888701062,
    "stop_lon": -70.5983859770035,
    "stop_url": "",
    "wheelchair_boarding": 0
  },
  {
    "stop_id": "PE92",
    "stop_code": "",
    "stop_name": "PE92-Avenida Santa Raquel / Esq. María Elena",
    "stop_lat": -33.5624621132889,
    "stop_lon": -70.5997790004576,
    "stop_url": "",
    "wheelchair_boarding": 0
  },
  {
    "stop_id": "PE1384",
    "stop_code": "",
    "stop_name": "PE1384-Avenida Santa Raquel / Esq. Gral. Arriagada",
    "stop_lat": -33.5589720785492,
    "stop_lon": -70.6009881346041,
    "stop_url": "",
    "wheelchair_boarding": 0
  },
  {
    "stop_id": "PE93",
    "stop_code": "",
    "stop_name": "PE93-Avenida Santa Raquel / Esq. Pasaje Bach",
    "stop_lat": -33.5571975726203,
    "stop_lon": -70.601045727916,
    "stop_url": "",
    "wheelchair_boarding": 0
  },
  {
    "stop_id": "PE94",
    "stop_code": "",
    "stop_name": "PE94-Avenida Santa Raquel / Esq. Sn. José De La.Estrella",
    "stop_lat": -33.554212085968,
    "stop_lon": -70.6016849996912,
    "stop_url": "",
    "wheelchair_boarding": 0
  },
  {
    "stop_id": "PE95",
    "stop_code": "",
    "stop_name": "PE95-Avenida Santa Raquel / Esq. José Miguel Carrera",
    "stop_lat": -33.5505400727054,
    "stop_lon": -70.6025930002407,
    "stop_url": "",
    "wheelchair_boarding": 0
  },
  {
    "stop_id": "PE96",
    "stop_code": "",
    "stop_name": "PE96-Avenida Santa Raquel / Esq. Avenida Trinidad",
    "stop_lat": -33.5470850601813,
    "stop_lon": -70.6034230002205,
    "stop_url": "",
    "wheelchair_boarding": 0
  },